[{"id":"11001","name":"宗谷岬","kana":"ｿｳﾔﾐｻｷ","address":"稚内市宗谷岬","lat":"45.52","lng":"141.935"},{"id":"11016","name":"稚内","kana":"ﾜｯｶﾅｲ","address":"稚内市開運　稚内地方気象台","lat":"45.415","lng":"141.6783333"},{"id":"11046","name":"礼文","kana":"ﾚﾌﾞﾝ","address":"礼文郡礼文町大字香深村トンナイ","lat":"45.305","lng":"141.045"},{"id":"11061","name":"声問","kana":"ｺｴﾄｲ","address":"稚内市大字声問村字声問　稚内航空気象観測所","lat":"45.40333333","lng":"141.8016667"},{"id":"11076","name":"浜鬼志別","kana":"ﾊﾏｵﾆｼﾍﾞﾂ","address":"宗谷郡猿払村浜鬼志別","lat":"45.335","lng":"142.17"},{"id":"11091","name":"本泊","kana":"ﾓﾄﾄﾞﾏﾘ","address":"利尻郡利尻富士町鴛泊字本泊　利尻航空気象観測所","lat":"45.24166667","lng":"141.1866667"},{"id":"11121","name":"沼川","kana":"ﾇﾏｶﾜ","address":"稚内市声問村沼川","lat":"45.24833333","lng":"141.8516667"},{"id":"11151","name":"沓形","kana":"ｸﾂｶﾞﾀ","address":"利尻郡利尻町沓形泉町","lat":"45.17833333","lng":"141.1383333"},{"id":"11176","name":"豊富","kana":"ﾄﾖﾄﾐ","address":"天塩郡豊富町豊富東2条","lat":"45.10166667","lng":"141.78"},{"id":"11206","name":"浜頓別","kana":"ﾊﾏﾄﾝﾍﾞﾂ","address":"枝幸郡浜頓別町クッチャロ湖畔","lat":"45.125","lng":"142.35"},{"id":"11276","name":"中頓別","kana":"ﾅｶﾄﾝﾍﾞﾂ","address":"枝幸郡中頓別町上駒","lat":"44.965","lng":"142.28"},{"id":"11291","name":"北見枝幸","kana":"ｷﾀﾐｴｻｼ","address":"枝幸郡枝幸町本町　北見枝幸特別地域気象観測所","lat":"44.94","lng":"142.585"},{"id":"11316","name":"歌登","kana":"ｳﾀﾉﾎﾞﾘ","address":"枝幸郡枝幸町歌登東町","lat":"44.84166667","lng":"142.48"},{"id":"13011","name":"幌延","kana":"ﾎﾛﾉﾍﾞ","address":"天塩郡幌延町上幌延","lat":"45.00666667","lng":"141.8516667"},{"id":"12011","name":"中川","kana":"ﾅｶｶﾞﾜ","address":"中川郡中川町中川","lat":"44.82833333","lng":"142.0766667"},{"id":"12041","name":"音威子府","kana":"ｵﾄｲﾈｯﾌﾟ","address":"中川郡音威子府村音威子府","lat":"44.72666667","lng":"142.265"},{"id":"12066","name":"小車","kana":"ｵｸﾞﾙﾏ","address":"中川郡美深町小車","lat":"44.60833333","lng":"142.295"},{"id":"12141","name":"美深","kana":"ﾋﾞﾌｶ","address":"中川郡美深町西町","lat":"44.48","lng":"142.3416667"},{"id":"12181","name":"名寄","kana":"ﾅﾖﾛ","address":"名寄市大橋","lat":"44.37","lng":"142.4566667"},{"id":"12217","name":"西風連","kana":"ﾆｼﾌｳﾚﾝ","address":"名寄市風連町西風連","lat":"44.295","lng":"142.3583333"},{"id":"12231","name":"下川","kana":"ｼﾓｶﾜ","address":"上川郡下川町南町","lat":"44.295","lng":"142.6366667"},{"id":"12256","name":"剣淵","kana":"ｹﾝﾌﾞﾁ","address":"上川郡剣淵町旭町","lat":"44.10666667","lng":"142.3533333"},{"id":"12261","name":"士別","kana":"ｼﾍﾞﾂ","address":"士別市武徳町","lat":"44.18666667","lng":"142.4166667"},{"id":"12266","name":"朝日","kana":"ｱｻﾋ","address":"士別市朝日町中央","lat":"44.11833333","lng":"142.595"},{"id":"12301","name":"和寒","kana":"ﾜｯｻﾑ","address":"上川郡和寒町日ノ出","lat":"44.02833333","lng":"142.41"},{"id":"12386","name":"江丹別","kana":"ｴﾀﾝﾍﾞﾂ","address":"旭川市江丹別町芳野","lat":"43.87","lng":"142.26"},{"id":"12396","name":"比布","kana":"ﾋﾟｯﾌﾟ","address":"上川郡比布町北2線","lat":"43.87","lng":"142.47"},{"id":"12411","name":"上川","kana":"ｶﾐｶﾜ","address":"上川郡上川町栄町","lat":"43.84666667","lng":"142.7533333"},{"id":"12442","name":"旭川","kana":"ｱｻﾋｶﾜ","address":"旭川市宮前1条　旭川地方気象台","lat":"43.75666667","lng":"142.3716667"},{"id":"12451","name":"東川","kana":"ﾋｶﾞｼｶﾜ","address":"上川郡東川町北町","lat":"43.70166667","lng":"142.5083333"},{"id":"12457","name":"瑞穂","kana":"ﾐｽﾞﾎ","address":"旭川市東旭川町瑞穂","lat":"43.73666667","lng":"142.6383333"},{"id":"12471","name":"層雲峡","kana":"ｿｳｳﾝｷｮｳ","address":"上川郡上川町層雲峡高山","lat":"43.75333333","lng":"142.93"},{"id":"12501","name":"東神楽","kana":"ﾋｶﾞｼｶｸﾞﾗ","address":"上川郡東神楽町東2線　旭川航空気象観測所","lat":"43.67","lng":"142.4466667"},{"id":"12512","name":"志比内","kana":"ｼﾋﾞﾅｲ","address":"上川郡東神楽町志比内","lat":"43.64333333","lng":"142.5816667"},{"id":"12551","name":"美瑛","kana":"ﾋﾞｴｲ","address":"上川郡美瑛町原野5線","lat":"43.58833333","lng":"142.4933333"},{"id":"12596","name":"上富良野","kana":"ｶﾐﾌﾗﾉ","address":"空知郡上富良野町大町","lat":"43.455","lng":"142.465"},{"id":"12607","name":"白金","kana":"ｼﾛｶﾞﾈ","address":"上川郡美瑛町白金","lat":"43.475","lng":"142.65"},{"id":"12626","name":"富良野","kana":"ﾌﾗﾉ","address":"富良野市東町","lat":"43.33333333","lng":"142.4"},{"id":"12632","name":"麓郷","kana":"ﾛｸｺﾞｳ","address":"富良野市麓郷市街地","lat":"43.30166667","lng":"142.5216667"},{"id":"12686","name":"金山","kana":"ｶﾅﾔﾏ","address":"空知郡南富良野町金山地先","lat":"43.13833333","lng":"142.4166667"},{"id":"12691","name":"幾寅","kana":"ｲｸﾄﾗ","address":"空知郡南富良野町幾寅","lat":"43.16833333","lng":"142.5683333"},{"id":"12746","name":"占冠","kana":"ｼﾑｶｯﾌﾟ","address":"勇払郡占冠村中央","lat":"42.97833333","lng":"142.395"},{"id":"15041","name":"朱鞠内","kana":"ｼｭﾏﾘﾅｲ","address":"雨竜郡幌加内町朱鞠内","lat":"44.28166667","lng":"142.1616667"},{"id":"15076","name":"幌加内","kana":"ﾎﾛｶﾅｲ","address":"雨竜郡幌加内町幌加内","lat":"44.01","lng":"142.16"},{"id":"13061","name":"天塩","kana":"ﾃｼｵ","address":"天塩郡天塩町川口","lat":"44.89333333","lng":"141.7616667"},{"id":"13086","name":"遠別","kana":"ｴﾝﾍﾞﾂ","address":"天塩郡遠別町幸和","lat":"44.71833333","lng":"141.8066667"},{"id":"13121","name":"初山別","kana":"ｼｮｻﾝﾍﾞﾂ","address":"苫前郡初山別村初山別","lat":"44.52333333","lng":"141.77"},{"id":"13146","name":"焼尻","kana":"ﾔｷﾞｼﾘ","address":"苫前郡羽幌町焼尻白浜","lat":"44.42833333","lng":"141.4216667"},{"id":"13181","name":"羽幌","kana":"ﾊﾎﾞﾛ","address":"苫前郡羽幌町南3条　羽幌特別地域気象観測所","lat":"44.36333333","lng":"141.7"},{"id":"13206","name":"古丹別","kana":"ｺﾀﾝﾍﾞﾂ","address":"苫前郡苫前町古丹別","lat":"44.265","lng":"141.7216667"},{"id":"13261","name":"達布","kana":"ﾀｯﾌﾟ","address":"留萌郡小平町達布","lat":"44.04833333","lng":"141.8566667"},{"id":"13277","name":"留萌","kana":"ﾙﾓｲ","address":"留萌市大町　留萌特別地域気象観測所","lat":"43.945","lng":"141.6316667"},{"id":"13311","name":"増毛","kana":"ﾏｼｹ","address":"増毛郡増毛町別苅","lat":"43.84833333","lng":"141.51"},{"id":"13321","name":"幌糠","kana":"ﾎﾛﾇｶ","address":"留萌市幌糠町","lat":"43.85333333","lng":"141.76"},{"id":"14026","name":"浜益","kana":"ﾊﾏﾏｽ","address":"石狩市浜益区川下","lat":"43.58166667","lng":"141.3866667"},{"id":"14071","name":"厚田","kana":"ｱﾂﾀ","address":"石狩市厚田区別狩","lat":"43.39666667","lng":"141.4366667"},{"id":"14101","name":"新篠津","kana":"ｼﾝｼﾉﾂ","address":"石狩郡新篠津村第46線北","lat":"43.22","lng":"141.645"},{"id":"14116","name":"山口","kana":"ﾔﾏｸﾞﾁ","address":"札幌市手稲区手稲山口","lat":"43.14833333","lng":"141.2216667"},{"id":"14121","name":"石狩","kana":"ｲｼｶﾘ","address":"石狩市生振","lat":"43.19333333","lng":"141.37"},{"id":"14136","name":"江別","kana":"ｴﾍﾞﾂ","address":"江別市江別太","lat":"43.11","lng":"141.6016667"},{"id":"14157","name":"手稲山","kana":"ﾃｲﾈﾔﾏ","address":"札幌市手稲区手稲金山","lat":"43.08333333","lng":"141.2016667"},{"id":"14163","name":"札幌","kana":"ｻｯﾎﾟﾛ","address":"札幌市中央区北2条西　札幌管区気象台","lat":"43.06","lng":"141.3283333"},{"id":"14191","name":"小金湯","kana":"ｺｶﾞﾈﾕ","address":"札幌市南区小金湯","lat":"42.96333333","lng":"141.2166667"},{"id":"14206","name":"恵庭島松","kana":"ｴﾆﾜｼﾏﾏﾂ","address":"恵庭市下島松","lat":"42.92666667","lng":"141.565"},{"id":"14286","name":"支笏湖畔","kana":"ｼｺﾂｺﾊﾝ","address":"千歳市支笏湖温泉番外地","lat":"42.77166667","lng":"141.4066667"},{"id":"14296","name":"千歳","kana":"ﾁﾄｾ","address":"千歳市美々　新千歳航空測候所","lat":"42.775","lng":"141.6916667"},{"id":"15116","name":"石狩沼田","kana":"ｲｼｶﾘﾇﾏﾀ","address":"雨竜郡沼田町緑町","lat":"43.815","lng":"141.9266667"},{"id":"15156","name":"秩父別","kana":"ﾁｯﾌﾟﾍﾞﾂ","address":"雨竜郡秩父別町５条","lat":"43.78","lng":"141.9616667"},{"id":"15161","name":"深川","kana":"ﾌｶｶﾞﾜ","address":"深川市一已町一已","lat":"43.71833333","lng":"142.0733333"},{"id":"15197","name":"雨竜","kana":"ｳﾘｭｳ","address":"雨竜郡雨竜町満寿","lat":"43.66","lng":"141.8916667"},{"id":"15216","name":"新城","kana":"ｼﾝｼﾞｮｳ","address":"芦別市新城","lat":"43.61166667","lng":"142.2033333"},{"id":"15231","name":"空知吉野","kana":"ｿﾗﾁﾖｼﾉ","address":"樺戸郡新十津川町吉野","lat":"43.595","lng":"141.7316667"},{"id":"15241","name":"滝川","kana":"ﾀｷｶﾜ","address":"滝川市南滝の川","lat":"43.57","lng":"141.9383333"},{"id":"15247","name":"赤平","kana":"ｱｶﾋﾞﾗ","address":"赤平市東豊里町","lat":"43.55333333","lng":"142.0666667"},{"id":"15251","name":"芦別","kana":"ｱｼﾍﾞﾂ","address":"芦別市北2条東","lat":"43.52","lng":"142.19"},{"id":"15276","name":"浦臼","kana":"ｳﾗｳｽ","address":"樺戸郡浦臼町浦臼内","lat":"43.42833333","lng":"141.8083333"},{"id":"15311","name":"月形","kana":"ﾂｷｶﾞﾀ","address":"樺戸郡月形町知来乙","lat":"43.33","lng":"141.6166667"},{"id":"15321","name":"美唄","kana":"ﾋﾞﾊﾞｲ","address":"美唄市北美唄町二区","lat":"43.36333333","lng":"141.8266667"},{"id":"15356","name":"岩見沢","kana":"ｲﾜﾐｻﾞﾜ","address":"岩見沢市5条東　岩見沢特別地域気象観測所","lat":"43.21166667","lng":"141.785"},{"id":"15391","name":"栗沢","kana":"ｸﾘｻﾜ","address":"岩見沢市栗沢町東本町","lat":"43.12166667","lng":"141.745"},{"id":"15431","name":"長沼","kana":"ﾅｶﾞﾇﾏ","address":"夕張郡長沼町本町北","lat":"43.01166667","lng":"141.6933333"},{"id":"15442","name":"夕張","kana":"ﾕｳﾊﾞﾘ","address":"夕張市鹿の谷山手町","lat":"43.03833333","lng":"141.9566667"},{"id":"15451","name":"鹿島","kana":"ｶｼﾏ","address":"夕張市鹿島富士見町","lat":"43.08","lng":"142.1"},{"id":"15491","name":"沼の沢","kana":"ﾇﾏﾉｻﾜ","address":"夕張市沼ノ沢","lat":"42.96","lng":"142.02"},{"id":"16026","name":"美国","kana":"ﾋﾞｸﾆ","address":"積丹郡積丹町美国町船澗","lat":"43.27166667","lng":"140.5633333"},{"id":"16061","name":"神恵内","kana":"ｶﾓｴﾅｲ","address":"古宇郡神恵内村神恵内村","lat":"43.145","lng":"140.4233333"},{"id":"16076","name":"余市","kana":"ﾖｲﾁ","address":"余市郡余市町豊丘町","lat":"43.18166667","lng":"140.7583333"},{"id":"16091","name":"小樽","kana":"ｵﾀﾙ","address":"小樽市勝納町　小樽特別地域気象観測所","lat":"43.18166667","lng":"141.015"},{"id":"16126","name":"赤井川","kana":"ｱｶｲｶﾞﾜ","address":"余市郡赤井川村赤井川","lat":"43.08333333","lng":"140.82"},{"id":"16156","name":"共和","kana":"ｷｮｳﾜ","address":"岩内郡共和町南幌似","lat":"42.98","lng":"140.6033333"},{"id":"16206","name":"蘭越","kana":"ﾗﾝｺｼ","address":"磯谷郡蘭越町蘭越","lat":"42.81","lng":"140.5416667"},{"id":"16217","name":"倶知安","kana":"ｸｯﾁｬﾝ","address":"虻田郡倶知安町南1条東　倶知安特別地域気象観測所","lat":"42.9","lng":"140.7566667"},{"id":"16252","name":"寿都","kana":"ｽｯﾂ","address":"寿都郡寿都町新栄町　寿都特別地域気象観測所","lat":"42.795","lng":"140.2233333"},{"id":"16272","name":"ニセコ","kana":"ﾆｾｺ","address":"虻田郡ニセコ町宮田","lat":"42.77833333","lng":"140.6666667"},{"id":"16281","name":"真狩","kana":"ﾏｯｶﾘ","address":"虻田郡真狩村美原","lat":"42.775","lng":"140.88"},{"id":"16286","name":"喜茂別","kana":"ｷﾓﾍﾞﾂ","address":"虻田郡喜茂別町伏見","lat":"42.79333333","lng":"140.9483333"},{"id":"16321","name":"黒松内","kana":"ｸﾛﾏﾂﾅｲ","address":"寿都郡黒松内町黒松内","lat":"42.66333333","lng":"140.31"},{"id":"17036","name":"雄武","kana":"ｵｳﾑ","address":"紋別郡雄武町雄武　雄武特別地域気象観測所","lat":"44.58","lng":"142.9633333"},{"id":"17076","name":"興部","kana":"ｵｺｯﾍﾟ","address":"紋別郡興部町興部","lat":"44.47","lng":"143.1083333"},{"id":"17091","name":"西興部","kana":"ﾆｼｵｺｯﾍﾟ","address":"紋別郡西興部村西興部","lat":"44.33166667","lng":"142.935"},{"id":"17112","name":"紋別","kana":"ﾓﾝﾍﾞﾂ","address":"紋別市南が丘町　紋別特別地域気象観測所","lat":"44.345","lng":"143.355"},{"id":"17116","name":"紋別小向","kana":"ﾓﾝﾍﾞﾂｺﾑｶｲ","address":"紋別市小向　紋別航空気象観測所","lat":"44.30333333","lng":"143.4033333"},{"id":"17166","name":"湧別","kana":"ﾕｳﾍﾞﾂ","address":"紋別郡湧別町東","lat":"44.21333333","lng":"143.6183333"},{"id":"17196","name":"滝上","kana":"ﾀｷﾉｳｴ","address":"紋別郡滝上町滝ノ上原野5線南","lat":"44.17666667","lng":"143.0616667"},{"id":"17211","name":"上藻別","kana":"ｶﾐﾓﾍﾞﾂ","address":"紋別市上藻別","lat":"44.18666667","lng":"143.335"},{"id":"17246","name":"常呂","kana":"ﾄｺﾛ","address":"北見市常呂町岐阜","lat":"44.115","lng":"144.0366667"},{"id":"17306","name":"遠軽","kana":"ｴﾝｶﾞﾙ","address":"紋別郡遠軽町東町","lat":"44.05333333","lng":"143.54"},{"id":"17316","name":"佐呂間","kana":"ｻﾛﾏ","address":"常呂郡佐呂間町西富","lat":"44.01833333","lng":"143.76"},{"id":"17341","name":"網走","kana":"ｱﾊﾞｼﾘ","address":"網走市台町　網走地方気象台","lat":"44.01666667","lng":"144.2783333"},{"id":"17351","name":"宇登呂","kana":"ｳﾄﾛ","address":"斜里郡斜里町ウトロ高原","lat":"44.05166667","lng":"144.9816667"},{"id":"17386","name":"丸瀬布","kana":"ﾏﾙｾｯﾌﾟ","address":"紋別郡遠軽町丸瀬布武利","lat":"43.95166667","lng":"143.3283333"},{"id":"17482","name":"白滝","kana":"ｼﾗﾀｷ","address":"紋別郡遠軽町白滝北支湧別","lat":"43.865","lng":"143.1533333"},{"id":"17501","name":"生田原","kana":"ｲｸﾀﾊﾗ","address":"紋別郡遠軽町生田原","lat":"43.91666667","lng":"143.5316667"},{"id":"17512","name":"仁頃山","kana":"ﾆｺﾛﾔﾏ","address":"北見市富里","lat":"43.86","lng":"143.7466667"},{"id":"17521","name":"北見","kana":"ｷﾀﾐ","address":"北見市広郷","lat":"43.77666667","lng":"143.8416667"},{"id":"17531","name":"女満別","kana":"ﾒﾏﾝﾍﾞﾂ","address":"網走郡大空町女満別中央　女満別航空気象観測所","lat":"43.88","lng":"144.1633333"},{"id":"17541","name":"東藻琴","kana":"ﾋｶﾞｼﾓｺﾄ","address":"網走郡大空町東藻琴","lat":"43.84","lng":"144.285"},{"id":"17546","name":"小清水","kana":"ｺｼﾐｽﾞ","address":"斜里郡小清水町泉","lat":"43.84166667","lng":"144.485"},{"id":"17561","name":"斜里","kana":"ｼｬﾘ","address":"斜里郡斜里町以久科南","lat":"43.885","lng":"144.7"},{"id":"17596","name":"留辺蘂","kana":"ﾙﾍﾞｼﾍﾞ","address":"北見市留辺蘂町大和","lat":"43.74166667","lng":"143.45"},{"id":"17607","name":"境野","kana":"ｻｶｲﾉ","address":"常呂郡置戸町豊住","lat":"43.70666667","lng":"143.6433333"},{"id":"17631","name":"美幌","kana":"ﾋﾞﾎﾛ","address":"網走郡美幌町福住","lat":"43.77","lng":"144.1716667"},{"id":"17642","name":"山園","kana":"ﾔﾏｿﾞﾉ","address":"網走郡大空町東藻琴山園","lat":"43.74333333","lng":"144.3366667"},{"id":"17686","name":"置戸常元","kana":"ｵｹﾄﾂﾈﾓﾄ","address":"常呂郡置戸町常元","lat":"43.62","lng":"143.44"},{"id":"17717","name":"津別","kana":"ﾂﾍﾞﾂ","address":"網走郡津別町豊永","lat":"43.70166667","lng":"144.0333333"},{"id":"17776","name":"津別二又","kana":"ﾂﾍﾞﾂﾌﾀﾏﾀ","address":"網走郡津別町二又","lat":"43.58333333","lng":"143.865"},{"id":"18038","name":"羅臼","kana":"ﾗｳｽ","address":"目梨郡羅臼町栄町","lat":"44.02333333","lng":"145.1866667"},{"id":"18091","name":"糸櫛別","kana":"ｲﾄｸｼﾍﾞﾂ","address":"標津郡標津町川北糸櫛別","lat":"43.72166667","lng":"144.9883333"},{"id":"18136","name":"標津","kana":"ｼﾍﾞﾂ","address":"標津郡標津町北2条西","lat":"43.66166667","lng":"145.1316667"},{"id":"18161","name":"上標津","kana":"ｶﾐｼﾍﾞﾂ","address":"標津郡中標津町上標津","lat":"43.52","lng":"144.7466667"},{"id":"18171","name":"中標津","kana":"ﾅｶｼﾍﾞﾂ","address":"標津郡中標津町桜ヶ丘","lat":"43.54333333","lng":"144.9783333"},{"id":"18174","name":"根室中標津","kana":"ﾈﾑﾛﾅｶｼﾍﾞﾂ","address":"標津郡中標津町北中　中標津航空気象観測所","lat":"43.57666667","lng":"144.96"},{"id":"18256","name":"別海","kana":"ﾍﾞﾂｶｲ","address":"野付郡別海町川上町","lat":"43.38166667","lng":"145.1183333"},{"id":"18273","name":"根室","kana":"ﾈﾑﾛ","address":"根室市弥栄町　根室特別地域気象観測所","lat":"43.33","lng":"145.585"},{"id":"18281","name":"納沙布","kana":"ﾉｻｯﾌﾟ","address":"根室市温根元","lat":"43.39333333","lng":"145.7583333"},{"id":"18311","name":"厚床","kana":"ｱｯﾄｺ","address":"根室市西厚床","lat":"43.22166667","lng":"145.2266667"},{"id":"19021","name":"川湯","kana":"ｶﾜﾕ","address":"川上郡弟子屈町川湯駅前","lat":"43.61666667","lng":"144.4566667"},{"id":"19051","name":"弟子屈","kana":"ﾃｼｶｶﾞ","address":"川上郡弟子屈町弟子屈原野","lat":"43.51","lng":"144.4666667"},{"id":"19076","name":"阿寒湖畔","kana":"ｱｶﾝｺﾊﾝ","address":"釧路市阿寒町阿寒湖温泉","lat":"43.43666667","lng":"144.0833333"},{"id":"19151","name":"標茶","kana":"ｼﾍﾞﾁｬ","address":"川上郡標茶町開運","lat":"43.29166667","lng":"144.5866667"},{"id":"19191","name":"鶴居","kana":"ﾂﾙｲ","address":"阿寒郡鶴居村鶴居東","lat":"43.23166667","lng":"144.325"},{"id":"19261","name":"中徹別","kana":"ﾅｶﾃｼﾍﾞﾂ","address":"釧路市阿寒町徹別中央34線","lat":"43.19833333","lng":"144.1416667"},{"id":"19281","name":"塘路","kana":"ﾄｳﾛ","address":"川上郡標茶町塘路","lat":"43.14833333","lng":"144.4966667"},{"id":"19301","name":"茶内原野","kana":"ﾁｬﾅｲｹﾞﾝﾔ","address":"厚岸郡浜中町茶内西13線","lat":"43.17333333","lng":"144.9666667"},{"id":"19311","name":"榊町","kana":"ｻｶｷﾏﾁ","address":"厚岸郡浜中町榊町","lat":"43.12","lng":"145.11"},{"id":"19346","name":"阿寒","kana":"ｱｶﾝ","address":"釧路市阿寒町中央","lat":"43.11333333","lng":"144.1233333"},{"id":"19347","name":"鶴丘","kana":"ﾂﾙｵｶ","address":"釧路市鶴丘　釧路航空気象観測所","lat":"43.04","lng":"144.1916667"},{"id":"19376","name":"太田","kana":"ｵｵﾀ","address":"厚岸郡厚岸町太田","lat":"43.09","lng":"144.7783333"},{"id":"19406","name":"二俣","kana":"ﾌﾀﾏﾀ","address":"釧路市音別町音別原野基線","lat":"42.97166667","lng":"143.875"},{"id":"19416","name":"白糠","kana":"ｼﾗﾇｶ","address":"白糠郡白糠町西2条北","lat":"42.97","lng":"144.0616667"},{"id":"19432","name":"釧路","kana":"ｸｼﾛ","address":"釧路市幸町　釧路地方気象台","lat":"42.985","lng":"144.3766667"},{"id":"19451","name":"知方学","kana":"ﾁｯﾎﾟﾏﾅｲ","address":"釧路郡釧路町仙鳳趾村知方学","lat":"42.93833333","lng":"144.735"},{"id":"20047","name":"三股","kana":"ﾐﾂﾏﾀ","address":"河東郡上士幌町三股","lat":"43.51","lng":"143.1483333"},{"id":"20071","name":"小利別","kana":"ｼｮｳﾄｼﾍﾞﾂ","address":"足寄郡陸別町小利別本通東1条","lat":"43.58833333","lng":"143.68"},{"id":"20146","name":"陸別","kana":"ﾘｸﾍﾞﾂ","address":"足寄郡陸別町陸別原野基線","lat":"43.47166667","lng":"143.7533333"},{"id":"20186","name":"ぬかびら源泉郷","kana":"ﾇｶﾋﾞﾗｹﾞﾝｾﾝｷｮｳ","address":"河東郡上士幌町ぬかびら源泉郷北区","lat":"43.36666667","lng":"143.1916667"},{"id":"20202","name":"柏倉","kana":"ｶｼﾜｸﾗ","address":"足寄郡足寄町茂喜登牛","lat":"43.36166667","lng":"143.4583333"},{"id":"20222","name":"上螺湾","kana":"ｶﾐﾗﾜﾝ","address":"足寄郡足寄町上螺湾","lat":"43.31833333","lng":"143.8016667"},{"id":"20266","name":"上士幌","kana":"ｶﾐｼﾎﾛ","address":"河東郡上士幌町東3線","lat":"43.24166667","lng":"143.295"},{"id":"20276","name":"足寄","kana":"ｱｼｮﾛ","address":"足寄郡足寄町南1条","lat":"43.24333333","lng":"143.5533333"},{"id":"20331","name":"押帯","kana":"ｵｼｮｯﾌﾟ","address":"中川郡本別町押帯","lat":"43.115","lng":"143.4433333"},{"id":"20341","name":"本別","kana":"ﾎﾝﾍﾞﾂ","address":"中川郡本別町新町","lat":"43.13166667","lng":"143.6"},{"id":"20356","name":"新得","kana":"ｼﾝﾄｸ","address":"上川郡新得町4条南","lat":"43.07666667","lng":"142.84"},{"id":"20361","name":"鹿追","kana":"ｼｶｵｲ","address":"河東郡鹿追町緑町","lat":"43.10333333","lng":"142.995"},{"id":"20371","name":"駒場","kana":"ｺﾏﾊﾞ","address":"河東郡音更町駒場北町","lat":"43.05","lng":"143.1833333"},{"id":"20421","name":"芽室","kana":"ﾒﾑﾛ","address":"河西郡芽室町西3条南","lat":"42.9","lng":"143.0433333"},{"id":"20432","name":"帯広","kana":"ｵﾋﾞﾋﾛ","address":"帯広市東4条南　帯広測候所","lat":"42.92166667","lng":"143.2116667"},{"id":"20441","name":"池田","kana":"ｲｹﾀﾞ","address":"中川郡池田町清見","lat":"42.92","lng":"143.4583333"},{"id":"20451","name":"留真","kana":"ﾙｼﾝ","address":"十勝郡浦幌町留真","lat":"42.91666667","lng":"143.6616667"},{"id":"20506","name":"浦幌","kana":"ｳﾗﾎﾛ","address":"十勝郡浦幌町桜町","lat":"42.80833333","lng":"143.6566667"},{"id":"20551","name":"帯広泉","kana":"ｵﾋﾞﾋﾛｲｽﾞﾐ","address":"帯広市泉町西9線中　帯広航空気象観測所","lat":"42.73333333","lng":"143.2166667"},{"id":"20556","name":"糠内","kana":"ﾇｶﾅｲ","address":"中川郡幕別町五位","lat":"42.78666667","lng":"143.3283333"},{"id":"20601","name":"上札内","kana":"ｶﾐｻﾂﾅｲ","address":"河西郡中札内村元札内西1線","lat":"42.64166667","lng":"143.0966667"},{"id":"20606","name":"更別","kana":"ｻﾗﾍﾞﾂ","address":"河西郡更別村更別南2線","lat":"42.65166667","lng":"143.195"},{"id":"20631","name":"大津","kana":"ｵｵﾂ","address":"中川郡豊頃町大津寿町","lat":"42.68666667","lng":"143.6466667"},{"id":"20696","name":"大樹","kana":"ﾀｲｷ","address":"広尾郡大樹町柏木町","lat":"42.5","lng":"143.2733333"},{"id":"20751","name":"広尾","kana":"ﾋﾛｵ","address":"広尾郡広尾町並木通東　広尾特別地域気象観測所","lat":"42.29333333","lng":"143.3166667"},{"id":"21031","name":"安平","kana":"ｱﾋﾞﾗ","address":"勇払郡安平町安平","lat":"42.815","lng":"141.8283333"},{"id":"21111","name":"厚真","kana":"ｱﾂﾏ","address":"勇払郡厚真町朝日","lat":"42.73","lng":"141.8883333"},{"id":"21126","name":"穂別","kana":"ﾎﾍﾞﾂ","address":"勇払郡むかわ町穂別","lat":"42.76166667","lng":"142.1433333"},{"id":"21161","name":"大滝","kana":"ｵｵﾀｷ","address":"伊達市大滝区本町","lat":"42.67","lng":"141.0783333"},{"id":"21171","name":"森野","kana":"ﾓﾘﾉ","address":"白老郡白老町森野","lat":"42.63","lng":"141.2466667"},{"id":"21187","name":"苫小牧","kana":"ﾄﾏｺﾏｲ","address":"苫小牧市しらかば町　苫小牧特別地域気象観測所","lat":"42.62333333","lng":"141.5466667"},{"id":"21226","name":"大岸","kana":"ｵｵｷｼ","address":"虻田郡豊浦町大岸","lat":"42.59","lng":"140.6433333"},{"id":"21237","name":"洞爺湖温泉","kana":"ﾄｳﾔｺｵﾝｾﾝ","address":"虻田郡洞爺湖町洞爺湖温泉","lat":"42.565","lng":"140.8066667"},{"id":"21251","name":"カルルス","kana":"ｶﾙﾙｽ","address":"登別市カルルス町","lat":"42.51666667","lng":"141.1066667"},{"id":"21261","name":"白老","kana":"ｼﾗｵｲ","address":"白老郡白老町高砂町","lat":"42.54333333","lng":"141.3516667"},{"id":"21276","name":"鵡川","kana":"ﾑｶﾜ","address":"勇払郡むかわ町豊城","lat":"42.59","lng":"141.9333333"},{"id":"21297","name":"伊達","kana":"ﾀﾞﾃ","address":"伊達市館山下町","lat":"42.475","lng":"140.8483333"},{"id":"21312","name":"登別","kana":"ﾉﾎﾞﾘﾍﾞﾂ","address":"登別市札内町","lat":"42.45833333","lng":"141.1183333"},{"id":"21323","name":"室蘭","kana":"ﾑﾛﾗﾝ","address":"室蘭市山手町　室蘭地方気象台","lat":"42.31166667","lng":"140.975"},{"id":"22036","name":"日高","kana":"ﾋﾀﾞｶ","address":"沙流郡日高町本町東","lat":"42.87666667","lng":"142.4416667"},{"id":"22072","name":"仁世宇","kana":"ﾆｾｳ","address":"沙流郡平取町仁世宇","lat":"42.77166667","lng":"142.3583333"},{"id":"22106","name":"旭","kana":"ｱｻﾋ","address":"沙流郡平取町旭地区","lat":"42.62833333","lng":"142.3933333"},{"id":"22141","name":"日高門別","kana":"ﾋﾀﾞｶﾓﾝﾍﾞﾂ","address":"沙流郡日高町富浜","lat":"42.49666667","lng":"142.0533333"},{"id":"22156","name":"新和","kana":"ｼﾝﾜ","address":"新冠郡新冠町新和","lat":"42.54333333","lng":"142.3333333"},{"id":"22206","name":"笹山","kana":"ｻｻﾔﾏ","address":"日高郡新ひだか町静内御園","lat":"42.43333333","lng":"142.4816667"},{"id":"22241","name":"静内","kana":"ｼｽﾞﾅｲ","address":"日高郡新ひだか町静内山手町","lat":"42.34333333","lng":"142.3616667"},{"id":"22291","name":"三石","kana":"ﾐﾂｲｼ","address":"日高郡新ひだか町三石美野和","lat":"42.245","lng":"142.6616667"},{"id":"22306","name":"中杵臼","kana":"ﾅｶｷﾈｳｽ","address":"浦河郡浦河町上杵臼","lat":"42.22333333","lng":"142.9483333"},{"id":"22327","name":"浦河","kana":"ｳﾗｶﾜ","address":"浦河郡浦河町潮見町　浦河特別地域気象観測所","lat":"42.16166667","lng":"142.7766667"},{"id":"22356","name":"目黒","kana":"ﾒｸﾞﾛ","address":"幌泉郡えりも町目黒","lat":"42.12833333","lng":"143.3116667"},{"id":"22366","name":"幌満","kana":"ﾎﾛﾏﾝ","address":"様似郡様似町幌満","lat":"42.07666667","lng":"143.035"},{"id":"22391","name":"えりも岬","kana":"ｴﾘﾓﾐｻｷ","address":"幌泉郡えりも町東洋","lat":"41.925","lng":"143.2433333"},{"id":"23031","name":"長万部","kana":"ｵｼｬﾏﾝﾍﾞ","address":"山越郡長万部町字長万部","lat":"42.51666667","lng":"140.3733333"},{"id":"23086","name":"八雲","kana":"ﾔｸﾓ","address":"二海郡八雲町本町","lat":"42.25166667","lng":"140.2716667"},{"id":"23166","name":"森","kana":"ﾓﾘ","address":"茅部郡森町姫川","lat":"42.06666667","lng":"140.5883333"},{"id":"23191","name":"大沼","kana":"ｵｵﾇﾏ","address":"亀田郡七飯町上軍川","lat":"41.97666667","lng":"140.715"},{"id":"23206","name":"川汲","kana":"ｶｯｸﾐ","address":"函館市川汲町","lat":"41.905","lng":"140.97"},{"id":"23226","name":"北斗","kana":"ﾎｸﾄ","address":"北斗市本町","lat":"41.88666667","lng":"140.6533333"},{"id":"23232","name":"函館","kana":"ﾊｺﾀﾞﾃ","address":"函館市美原　函館地方気象台","lat":"41.81666667","lng":"140.7533333"},{"id":"23281","name":"高松","kana":"ﾀｶﾏﾂ","address":"函館市高松町　函館航空気象観測所","lat":"41.77","lng":"140.8216667"},{"id":"23291","name":"戸井泊","kana":"ﾄｲﾄﾏﾘ","address":"函館市泊町","lat":"41.71666667","lng":"141.0033333"},{"id":"23321","name":"知内","kana":"ｼﾘｳﾁ","address":"上磯郡知内町上雷","lat":"41.59833333","lng":"140.375"},{"id":"23326","name":"木古内","kana":"ｷｺﾅｲ","address":"上磯郡木古内町字本町","lat":"41.68","lng":"140.4366667"},{"id":"23356","name":"千軒","kana":"ｾﾝｹﾞﾝ","address":"松前郡福島町千軒","lat":"41.55833333","lng":"140.2716667"},{"id":"23376","name":"松前","kana":"ﾏﾂﾏｴ","address":"松前郡松前町建石","lat":"41.42333333","lng":"140.0866667"},{"id":"24141","name":"熊石","kana":"ｸﾏｲｼ","address":"二海郡八雲町熊石根崎町","lat":"42.12833333","lng":"139.985"},{"id":"24041","name":"せたな","kana":"ｾﾀﾅ","address":"久遠郡せたな町瀬棚区本町","lat":"42.45","lng":"139.8516667"},{"id":"24051","name":"今金","kana":"ｲﾏｶﾈ","address":"瀬棚郡今金町今金","lat":"42.42833333","lng":"140.0083333"},{"id":"24101","name":"奥尻","kana":"ｵｸｼﾘ","address":"奥尻郡奥尻町稲穂","lat":"42.24833333","lng":"139.5566667"},{"id":"24156","name":"米岡","kana":"ﾖﾈｵｶ","address":"奥尻郡奥尻町字米岡　奥尻航空気象観測所","lat":"42.07166667","lng":"139.4316667"},{"id":"24166","name":"潮見","kana":"ｼｵﾐ","address":"爾志郡乙部町潮見","lat":"42.03833333","lng":"140.0883333"},{"id":"24201","name":"鶉","kana":"ｳｽﾞﾗ","address":"檜山郡厚沢部町鶉町","lat":"41.93","lng":"140.3116667"},{"id":"24217","name":"江差","kana":"ｴｻｼ","address":"檜山郡江差町姥神町　江差特別地域気象観測所","lat":"41.86666667","lng":"140.1233333"},{"id":"24236","name":"石崎","kana":"ｲｼｻﾞｷ","address":"檜山郡上ノ国町石崎","lat":"41.7","lng":"140.0283333"},{"id":"31001","name":"大間","kana":"ｵｵﾏ","address":"下北郡大間町大間字狼丁","lat":"41.52666667","lng":"140.9116667"},{"id":"31036","name":"湯野川","kana":"ﾕﾉｶﾜ","address":"むつ市川内町湯野川","lat":"41.31333333","lng":"140.9566667"},{"id":"31111","name":"むつ","kana":"ﾑﾂ","address":"むつ市金曲　むつ特別地域気象観測所","lat":"41.28333333","lng":"141.21"},{"id":"31121","name":"小田野沢","kana":"ｵﾀﾞﾉｻﾜ","address":"下北郡東通村小田野沢字中川目","lat":"41.235","lng":"141.3966667"},{"id":"31136","name":"今別","kana":"ｲﾏﾍﾞﾂ","address":"東津軽郡今別町今別字中沢","lat":"41.18","lng":"140.4816667"},{"id":"31156","name":"脇野沢","kana":"ﾜｷﾉｻﾜ","address":"むつ市脇野沢桂沢","lat":"41.145","lng":"140.8216667"},{"id":"31186","name":"市浦","kana":"ｼｳﾗ","address":"五所川原市相内","lat":"41.05666667","lng":"140.3466667"},{"id":"31201","name":"蟹田","kana":"ｶﾆﾀ","address":"東津軽郡外ヶ浜町字蟹田鰐ケ淵","lat":"41.045","lng":"140.6333333"},{"id":"31296","name":"五所川原","kana":"ｺﾞｼｮｶﾞﾜﾗ","address":"五所川原市松島町","lat":"40.80833333","lng":"140.4583333"},{"id":"31312","name":"青森","kana":"ｱｵﾓﾘ","address":"青森市花園　青森地方気象台","lat":"40.82166667","lng":"140.7683333"},{"id":"31321","name":"大和山","kana":"ﾔﾏﾄﾔﾏ","address":"東津軽郡平内町外童子字滝ノ沢","lat":"40.84833333","lng":"140.985"},{"id":"31332","name":"野辺地","kana":"ﾉﾍｼﾞ","address":"上北郡野辺地町有戸鳥井平","lat":"40.885","lng":"141.16"},{"id":"31336","name":"六ケ所","kana":"ﾛｯｶｼｮ","address":"上北郡六ヶ所村倉内字笹崎","lat":"40.885","lng":"141.2716667"},{"id":"31366","name":"鰺ケ沢","kana":"ｱｼﾞｶﾞｻﾜ","address":"西津軽郡鰺ヶ沢町舞戸町字小夜","lat":"40.77666667","lng":"140.205"},{"id":"31386","name":"青森大谷","kana":"ｱｵﾓﾘｵｵﾀﾆ","address":"青森市大字大谷字小谷　青森航空気象観測所","lat":"40.73333333","lng":"140.6883333"},{"id":"31411","name":"七戸","kana":"ｼﾁﾉﾍ","address":"上北郡七戸町鶴児平","lat":"40.70833333","lng":"141.1283333"},{"id":"31436","name":"深浦","kana":"ﾌｶｳﾗ","address":"西津軽郡深浦町大字深浦字岡町　深浦特別地域気象観測所","lat":"40.645","lng":"139.9316667"},{"id":"31451","name":"岳","kana":"ﾀﾞｹ","address":"弘前市常盤野字湯の沢","lat":"40.62833333","lng":"140.2633333"},{"id":"31461","name":"弘前","kana":"ﾋﾛｻｷ","address":"弘前市和田町","lat":"40.61166667","lng":"140.455"},{"id":"31466","name":"黒石","kana":"ｸﾛｲｼ","address":"黒石市馬場尻南","lat":"40.66666667","lng":"140.585"},{"id":"31482","name":"酸ケ湯","kana":"ｽｶﾕ","address":"青森市荒川字南荒川山国有林酸ヶ湯沢","lat":"40.64833333","lng":"140.8483333"},{"id":"31506","name":"三沢","kana":"ﾐｻﾜ","address":"三沢市東町","lat":"40.675","lng":"141.375"},{"id":"31551","name":"大鰐","kana":"ｵｵﾜﾆ","address":"南津軽郡大鰐町大字鯖石字浅瀬渕","lat":"40.53","lng":"140.555"},{"id":"31562","name":"温川","kana":"ﾇﾙｶﾜ","address":"平川市切明津根川森","lat":"40.515","lng":"140.7833333"},{"id":"31586","name":"十和田","kana":"ﾄﾜﾀﾞ","address":"十和田市東十六番町","lat":"40.60666667","lng":"141.2333333"},{"id":"31602","name":"八戸","kana":"ﾊﾁﾉﾍ","address":"八戸市湊町字館鼻　八戸特別地域気象観測所","lat":"40.52666667","lng":"141.5216667"},{"id":"31646","name":"碇ケ関","kana":"ｲｶﾘｶﾞｾｷ","address":"平川市碇ヶ関阿原","lat":"40.48166667","lng":"140.62"},{"id":"31662","name":"休屋","kana":"ﾔｽﾐﾔ","address":"十和田市大字奥瀬字十和田湖畔休屋","lat":"40.42666667","lng":"140.8983333"},{"id":"31671","name":"戸来","kana":"ﾍﾗｲ","address":"三戸郡新郷村大字戸来字金ヶ沢坂ノ下","lat":"40.46833333","lng":"141.1766667"},{"id":"31721","name":"三戸","kana":"ｻﾝﾉﾍ","address":"三戸郡三戸町川守田字寺ノ沢","lat":"40.38333333","lng":"141.2566667"},{"id":"32056","name":"八森","kana":"ﾊﾁﾓﾘ","address":"山本郡八峰町八森字チコキ","lat":"40.41333333","lng":"139.9483333"},{"id":"32071","name":"藤里","kana":"ﾌｼﾞｻﾄ","address":"山本郡藤里町藤琴字大落","lat":"40.32","lng":"140.2933333"},{"id":"32091","name":"陣場","kana":"ｼﾞﾝﾊﾞ","address":"大館市長走字陣場","lat":"40.415","lng":"140.61"},{"id":"32096","name":"藤原","kana":"ﾌｼﾞﾜﾗ","address":"鹿角郡小坂町上向字藤原","lat":"40.35333333","lng":"140.78"},{"id":"32111","name":"能代","kana":"ﾉｼﾛ","address":"能代市緑町","lat":"40.19833333","lng":"140.0316667"},{"id":"32126","name":"鷹巣","kana":"ﾀｶﾉｽ","address":"北秋田市旭町","lat":"40.22666667","lng":"140.3716667"},{"id":"32136","name":"大館","kana":"ｵｵﾀﾞﾃ","address":"大館市出川字上野","lat":"40.25166667","lng":"140.505"},{"id":"32146","name":"鹿角","kana":"ｶﾂﾞﾉ","address":"鹿角市花輪字荒田","lat":"40.215","lng":"140.7866667"},{"id":"32181","name":"脇神","kana":"ﾜｷｶﾞﾐ","address":"北秋田市脇神字��岱　大館能代航空気象観測所","lat":"40.19166667","lng":"140.3716667"},{"id":"32206","name":"湯瀬","kana":"ﾕｾﾞ","address":"鹿角市八幡平湯瀬字一羽根","lat":"40.12","lng":"140.84"},{"id":"32266","name":"八幡平","kana":"ﾊﾁﾏﾝﾀｲ","address":"鹿角市八幡平字熊沢外8国有林","lat":"40.01333333","lng":"140.8016667"},{"id":"32276","name":"男鹿真山","kana":"ｵｶﾞｼﾝｻﾞﾝ","address":"男鹿市北浦相川字小屋ケ沢","lat":"39.93833333","lng":"139.7816667"},{"id":"32286","name":"男鹿","kana":"ｵｶﾞ","address":"男鹿市脇本脇本字上野","lat":"39.91166667","lng":"139.9"},{"id":"32287","name":"大潟","kana":"ｵｵｶﾞﾀ","address":"南秋田郡大潟村大潟","lat":"40","lng":"139.95"},{"id":"32296","name":"五城目","kana":"ｺﾞｼﾞｮｳﾒ","address":"南秋田郡五城目町上樋口字屋岸","lat":"39.93833333","lng":"140.115"},{"id":"32311","name":"阿仁合","kana":"ｱﾆｱｲ","address":"北秋田市阿仁水無字畑町東裏","lat":"39.99333333","lng":"140.4033333"},{"id":"32312","name":"比立内","kana":"ﾋﾀﾁﾅｲ","address":"北秋田市阿仁幸屋渡字山根","lat":"39.90333333","lng":"140.45"},{"id":"32376","name":"桧木内","kana":"ﾋﾉｷﾅｲ","address":"仙北市西木町上桧木内字宮田","lat":"39.81166667","lng":"140.585"},{"id":"32402","name":"秋田","kana":"ｱｷﾀ","address":"秋田市山王　秋田地方気象台","lat":"39.71666667","lng":"140.0983333"},{"id":"32407","name":"岩見三内","kana":"ｲﾜﾐｻﾝﾅｲ","address":"秋田市河辺三内字外川原","lat":"39.70666667","lng":"140.2866667"},{"id":"32408","name":"仁別","kana":"ﾆﾍﾞﾂ","address":"秋田市仁別字マンタラメ","lat":"39.8","lng":"140.2166667"},{"id":"32426","name":"鎧畑","kana":"ﾖﾛｲﾊﾞﾀ","address":"仙北市田沢湖町田沢字鎧畑","lat":"39.775","lng":"140.665"},{"id":"32431","name":"田沢湖高原","kana":"ﾀｻﾞﾜｺｺｳｹﾞﾝ","address":"仙北市田沢湖生保内字駒ヶ岳","lat":"39.77833333","lng":"140.7616667"},{"id":"32451","name":"雄和","kana":"ﾕｳﾜ","address":"秋田市雄和椿川字山籠　秋田航空気象観測所","lat":"39.615","lng":"140.2183333"},{"id":"32466","name":"角館","kana":"ｶｸﾉﾀﾞﾃ","address":"仙北市角館町小勝田鵜の崎","lat":"39.60333333","lng":"140.5566667"},{"id":"32476","name":"田沢湖","kana":"ﾀｻﾞﾜｺ","address":"仙北市田沢湖生保内字宮の後","lat":"39.69833333","lng":"140.7316667"},{"id":"32496","name":"大正寺","kana":"ﾀﾞｲｼｮｳｼﾞ","address":"秋田市雄和新波字寺沢","lat":"39.52666667","lng":"140.2333333"},{"id":"32551","name":"大曲","kana":"ｵｵﾏｶﾞﾘ","address":"大仙市四ツ屋字下古道","lat":"39.49","lng":"140.495"},{"id":"32571","name":"本荘","kana":"ﾎﾝｼﾞｮｳ","address":"由利本荘市埋田字用堰南","lat":"39.36","lng":"140.055"},{"id":"32581","name":"東由利","kana":"ﾋｶﾞｼﾕﾘ","address":"由利本荘市東由利老方字後田","lat":"39.305","lng":"140.2883333"},{"id":"32596","name":"横手","kana":"ﾖｺﾃ","address":"横手市横手町大樋","lat":"39.32","lng":"140.555"},{"id":"32616","name":"にかほ","kana":"ﾆｶﾎ","address":"にかほ市金浦字南金浦","lat":"39.255","lng":"139.9133333"},{"id":"32626","name":"矢島","kana":"ﾔｼﾏ","address":"由利本荘市矢島町城内字築館","lat":"39.235","lng":"140.1366667"},{"id":"32681","name":"笹子","kana":"ｼﾞﾈｺﾞ","address":"由利本荘市鳥海町上笹子字川合","lat":"39.10333333","lng":"140.2933333"},{"id":"32691","name":"湯沢","kana":"ﾕｻﾞﾜ","address":"湯沢市金谷字樋ノ口","lat":"39.18666667","lng":"140.4633333"},{"id":"32701","name":"東成瀬","kana":"ﾋｶﾞｼﾅﾙｾ","address":"雄勝郡東成瀬村田子内字仙人下","lat":"39.17833333","lng":"140.6483333"},{"id":"32771","name":"湯の岱","kana":"ﾕﾉﾀｲ","address":"湯沢市秋の宮字湯の岱","lat":"38.96","lng":"140.5283333"},{"id":"33006","name":"種市","kana":"ﾀﾈｲﾁ","address":"九戸郡洋野町種市第21地割","lat":"40.40333333","lng":"141.7"},{"id":"33026","name":"軽米","kana":"ｶﾙﾏｲ","address":"九戸郡軽米町大字上舘第15地割","lat":"40.325","lng":"141.4666667"},{"id":"33071","name":"二戸","kana":"ﾆﾉﾍ","address":"二戸市堀野字馬場","lat":"40.29833333","lng":"141.2983333"},{"id":"33086","name":"大野","kana":"ｵｵﾉ","address":"九戸郡洋野町大野","lat":"40.28166667","lng":"141.6666667"},{"id":"33136","name":"山形","kana":"ﾔﾏｶﾞﾀ","address":"久慈市山形町川井","lat":"40.14833333","lng":"141.5716667"},{"id":"33146","name":"久慈","kana":"ｸｼﾞ","address":"久慈市小久慈町第24地割","lat":"40.16833333","lng":"141.7483333"},{"id":"33166","name":"荒屋","kana":"ｱﾗﾔ","address":"八幡平市叺田","lat":"40.10333333","lng":"141.05"},{"id":"33176","name":"奥中山","kana":"ｵｸﾅｶﾔﾏ","address":"二戸郡一戸町小繋字西田子","lat":"40.06","lng":"141.225"},{"id":"33186","name":"葛巻","kana":"ｸｽﾞﾏｷ","address":"岩手郡葛巻町葛巻第7地割字元町","lat":"40.04","lng":"141.4566667"},{"id":"33201","name":"下戸鎖","kana":"ｼﾓﾄｸｻﾘ","address":"久慈市山根町下戸鎖","lat":"40.085","lng":"141.7116667"},{"id":"33206","name":"普代","kana":"ﾌﾀﾞｲ","address":"下閉伊郡普代村第13地割字普代","lat":"40.00333333","lng":"141.8833333"},{"id":"33226","name":"岩手松尾","kana":"ｲﾜﾃﾏﾂｵ","address":"八幡平市野駄","lat":"39.95166667","lng":"141.065"},{"id":"33231","name":"一方井","kana":"ｲｯｶﾀｲ","address":"岩手郡岩手町大字一方井第15地割","lat":"39.97333333","lng":"141.1666667"},{"id":"33296","name":"好摩","kana":"ｺｳﾏ","address":"盛岡市好摩字芋田向","lat":"39.86833333","lng":"141.1666667"},{"id":"33326","name":"岩泉","kana":"ｲﾜｲｽﾞﾐ","address":"下閉伊郡岩泉町岩泉字中家","lat":"39.84666667","lng":"141.795"},{"id":"33336","name":"小本","kana":"ｵﾓﾄ","address":"下閉伊郡岩泉町小本字下中野","lat":"39.84666667","lng":"141.9633333"},{"id":"33351","name":"葛根田","kana":"ｶｯｺﾝﾀﾞ","address":"岩手郡雫石町西根第3地割上篠崎","lat":"39.77666667","lng":"140.945"},{"id":"33361","name":"滝沢","kana":"ﾀｷｻﾞﾜ","address":"滝沢市湯舟沢","lat":"39.78","lng":"141.0966667"},{"id":"33371","name":"薮川","kana":"ﾔﾌﾞｶﾜ","address":"盛岡市薮川字外山","lat":"39.78333333","lng":"141.3283333"},{"id":"33421","name":"雫石","kana":"ｼｽﾞｸｲｼ","address":"岩手郡雫石町第40地割字千刈田","lat":"39.69666667","lng":"140.975"},{"id":"33431","name":"盛岡","kana":"ﾓﾘｵｶ","address":"盛岡市山王町　盛岡地方気象台","lat":"39.69833333","lng":"141.165"},{"id":"33441","name":"区界","kana":"ｸｻﾞｶｲ","address":"宮古市区界第2地割","lat":"39.65","lng":"141.3533333"},{"id":"33472","name":"宮古","kana":"ﾐﾔｺ","address":"宮古市鍬ケ崎下町　宮古特別地域気象観測所","lat":"39.64666667","lng":"141.965"},{"id":"33486","name":"沢内","kana":"ｻﾜｳﾁ","address":"和賀郡西和賀町沢内字貝沢4地割","lat":"39.54833333","lng":"140.8433333"},{"id":"33501","name":"紫波","kana":"ｼﾜ","address":"紫波郡紫波町稲藤字七郷","lat":"39.54666667","lng":"141.1266667"},{"id":"33526","name":"川井","kana":"ｶﾜｲ","address":"宮古市川井","lat":"39.59833333","lng":"141.6816667"},{"id":"33566","name":"豊沢","kana":"ﾄﾖｻﾜ","address":"花巻市北豊沢山国有林","lat":"39.48","lng":"140.9683333"},{"id":"33576","name":"花巻","kana":"ﾊﾅﾏｷ","address":"花巻市葛第3地割　花巻航空気象観測所","lat":"39.42833333","lng":"141.135"},{"id":"33581","name":"大迫","kana":"ｵｵﾊｻﾏ","address":"花巻市大迫町大迫第13地割","lat":"39.47","lng":"141.2783333"},{"id":"33596","name":"附馬牛","kana":"ﾂｷﾓｳｼ","address":"遠野市附馬牛町上附馬牛19地割","lat":"39.45666667","lng":"141.5066667"},{"id":"33611","name":"大槌","kana":"ｵｵﾂﾁ","address":"上閉伊郡大槌町金沢","lat":"39.43833333","lng":"141.8066667"},{"id":"33616","name":"山田","kana":"ﾔﾏﾀﾞ","address":"下閉伊郡山田町織笠第11地割","lat":"39.45","lng":"141.9566667"},{"id":"33631","name":"湯田","kana":"ﾕﾀﾞ","address":"和賀郡西和賀町上野々第39地割","lat":"39.31","lng":"140.7766667"},{"id":"33671","name":"遠野","kana":"ﾄｵﾉ","address":"遠野市松崎町白岩24地割","lat":"39.33833333","lng":"141.5433333"},{"id":"33711","name":"金ケ崎","kana":"ｶﾈｶﾞｻｷ","address":"胆沢郡金ケ崎町西根千貫石","lat":"39.225","lng":"141.015"},{"id":"33716","name":"北上","kana":"ｷﾀｶﾐ","address":"北上市芳町","lat":"39.28833333","lng":"141.11"},{"id":"33726","name":"米里","kana":"ﾖﾈｻﾄ","address":"奥州市江刺米里字荒田表","lat":"39.23333333","lng":"141.31"},{"id":"33751","name":"釜石","kana":"ｶﾏｲｼ","address":"釜石市港町","lat":"39.27","lng":"141.8783333"},{"id":"33776","name":"若柳","kana":"ﾜｶﾔﾅｷﾞ","address":"奥州市胆沢若柳字倉舘","lat":"39.14","lng":"141.0633333"},{"id":"33781","name":"江刺","kana":"ｴｻｼ","address":"奥州市江刺愛宕字八日市","lat":"39.18333333","lng":"141.1616667"},{"id":"33801","name":"住田","kana":"ｽﾐﾀ","address":"気仙郡住田町世田米字川向","lat":"39.14166667","lng":"141.5733333"},{"id":"33831","name":"祭畤","kana":"ﾏﾂﾙﾍﾞ","address":"一関市厳美町祭畤","lat":"39.01166667","lng":"140.865"},{"id":"33841","name":"衣川","kana":"ｺﾛﾓｶﾞﾜ","address":"奥州市衣川懸田","lat":"39.05","lng":"141.045"},{"id":"33856","name":"大東","kana":"ﾀﾞｲﾄｳ","address":"一関市大東町猿沢字上ノ洞","lat":"39.03833333","lng":"141.2966667"},{"id":"33877","name":"大船渡","kana":"ｵｵﾌﾅﾄ","address":"大船渡市大船渡町字赤沢　大船渡特別地域気象観測所","lat":"39.06333333","lng":"141.7133333"},{"id":"33911","name":"一関","kana":"ｲﾁﾉｾｷ","address":"一関市竹山町","lat":"38.93333333","lng":"141.125"},{"id":"33921","name":"千厩","kana":"ｾﾝﾏﾔ","address":"一関市千厩町千厩字北方","lat":"38.92166667","lng":"141.33"},{"id":"34012","name":"駒ノ湯","kana":"ｺﾏﾉﾕ","address":"栗原市栗駒沼倉耕英南","lat":"38.91333333","lng":"140.8283333"},{"id":"34026","name":"気仙沼","kana":"ｹｾﾝﾇﾏ","address":"気仙沼市古町","lat":"38.90666667","lng":"141.5566667"},{"id":"34056","name":"鴬沢","kana":"ｳｸﾞｲｽｻﾞﾜ","address":"栗原市鶯沢袋宮林","lat":"38.805","lng":"140.9483333"},{"id":"34096","name":"川渡","kana":"ｶﾜﾀﾋﾞ","address":"大崎市鳴子温泉字蓬田","lat":"38.74333333","lng":"140.76"},{"id":"34111","name":"築館","kana":"ﾂｷﾀﾞﾃ","address":"栗原市築館左足下","lat":"38.735","lng":"141.005"},{"id":"34171","name":"米山","kana":"ﾖﾈﾔﾏ","address":"登米市米山町西野字新遠田","lat":"38.625","lng":"141.1866667"},{"id":"34186","name":"志津川","kana":"ｼﾂﾞｶﾞﾜ","address":"本吉郡南三陸町志津川字城場","lat":"38.68166667","lng":"141.4483333"},{"id":"34206","name":"加美","kana":"ｶﾐ","address":"加美郡加美町味ヶ袋薬莱原","lat":"38.57166667","lng":"140.7266667"},{"id":"34216","name":"古川","kana":"ﾌﾙｶﾜ","address":"大崎市古川大崎字富国","lat":"38.59833333","lng":"140.9116667"},{"id":"34241","name":"雄勝","kana":"ｵｶﾞﾂ","address":"石巻市雄勝町雄勝字下雄勝","lat":"38.52","lng":"141.465"},{"id":"34262","name":"泉ケ岳","kana":"ｲｽﾞﾐｶﾞﾀﾞｹ","address":"仙台市泉区福岡岳山","lat":"38.40666667","lng":"140.7216667"},{"id":"34266","name":"大衡","kana":"ｵｵﾋﾗ","address":"黒川郡大衡村松の平","lat":"38.47333333","lng":"140.8883333"},{"id":"34276","name":"鹿島台","kana":"ｶｼﾏﾀﾞｲ","address":"大崎市鹿島台広長字内の浦","lat":"38.46","lng":"141.0916667"},{"id":"34292","name":"石巻","kana":"ｲｼﾉﾏｷ","address":"石巻市泉町　石巻特別地域気象観測所","lat":"38.42666667","lng":"141.2983333"},{"id":"34296","name":"女川","kana":"ｵﾅｶﾞﾜ","address":"牡鹿郡女川町宮ケ崎字宮ケ崎","lat":"38.44666667","lng":"141.45"},{"id":"34311","name":"新川","kana":"ﾆｯｶﾜ","address":"仙台市青葉区新川字清水尻","lat":"38.30333333","lng":"140.6366667"},{"id":"34331","name":"塩釜","kana":"ｼｵｶﾞﾏ","address":"塩竈市伊保石","lat":"38.33833333","lng":"141.0133333"},{"id":"34392","name":"仙台","kana":"ｾﾝﾀﾞｲ","address":"仙台市宮城野区五輪　仙台管区気象台","lat":"38.26166667","lng":"140.8966667"},{"id":"34436","name":"名取","kana":"ﾅﾄﾘ","address":"名取市下増田字南原　仙台航空測候所","lat":"38.13833333","lng":"140.9166667"},{"id":"34461","name":"白石","kana":"ｼﾛｲｼ","address":"白石市福岡長袋字湯殿山","lat":"38.015","lng":"140.6116667"},{"id":"34462","name":"蔵王","kana":"ｻﾞｵｳ","address":"刈田郡蔵王町大字平沢字内屋敷","lat":"38.12666667","lng":"140.68"},{"id":"34471","name":"亘理","kana":"ﾜﾀﾘ","address":"亘理郡亘理町字油田","lat":"38.025","lng":"140.8583333"},{"id":"34506","name":"丸森","kana":"ﾏﾙﾓﾘ","address":"伊具郡丸森町舘矢間舘山字新賢中","lat":"37.93166667","lng":"140.7783333"},{"id":"34526","name":"筆甫","kana":"ﾋｯﾎﾟ","address":"伊具郡丸森町筆甫字和田","lat":"37.82666667","lng":"140.7283333"},{"id":"35002","name":"飛島","kana":"ﾄﾋﾞｼﾏ","address":"酒田市飛島字勝浦乙","lat":"39.18333333","lng":"139.5433333"},{"id":"35052","name":"酒田","kana":"ｻｶﾀ","address":"酒田市亀ケ崎　酒田特別地域気象観測所","lat":"38.90833333","lng":"139.8433333"},{"id":"35056","name":"酒田大沢","kana":"ｻｶﾀｵｵｻﾜ","address":"酒田市大蕨字二タ子","lat":"38.965","lng":"139.9983333"},{"id":"35071","name":"差首鍋","kana":"ｻｽﾅﾍﾞ","address":"最上郡真室川町差首鍋","lat":"38.91833333","lng":"140.2"},{"id":"35086","name":"浜中","kana":"ﾊﾏﾅｶ","address":"酒田市浜中字村東　庄内航空気象観測所","lat":"38.81166667","lng":"139.7866667"},{"id":"35116","name":"金山","kana":"ｶﾈﾔﾏ","address":"最上郡金山町金山字本町","lat":"38.87833333","lng":"140.3316667"},{"id":"35141","name":"鶴岡","kana":"ﾂﾙｵｶ","address":"鶴岡市錦町","lat":"38.735","lng":"139.8283333"},{"id":"35146","name":"狩川","kana":"ｶﾘｶﾜ","address":"東田川郡庄内町狩川字矢倉","lat":"38.8","lng":"139.9733333"},{"id":"35162","name":"新庄","kana":"ｼﾝｼﾞｮｳ","address":"新庄市東谷地田町　新庄特別地域気象観測所","lat":"38.75666667","lng":"140.3116667"},{"id":"35171","name":"瀬見","kana":"ｾﾐ","address":"最上郡最上町大堀","lat":"38.755","lng":"140.4133333"},{"id":"35176","name":"向町","kana":"ﾑｶｲﾏﾁ","address":"最上郡最上町向町","lat":"38.75833333","lng":"140.5166667"},{"id":"35201","name":"櫛引","kana":"ｸｼﾋﾞｷ","address":"鶴岡市桂荒俣字上桂","lat":"38.67166667","lng":"139.8483333"},{"id":"35216","name":"肘折","kana":"ﾋｼﾞｵﾘ","address":"最上郡大蔵村南山","lat":"38.60666667","lng":"140.1633333"},{"id":"35231","name":"尾花沢","kana":"ｵﾊﾞﾅｻﾞﾜ","address":"尾花沢市新町","lat":"38.60833333","lng":"140.4116667"},{"id":"35246","name":"鼠ケ関","kana":"ﾈｽﾞｶﾞｾｷ","address":"鶴岡市鼠ケ関字横路","lat":"38.56666667","lng":"139.5516667"},{"id":"35256","name":"荒沢","kana":"ｱﾗｻﾜ","address":"鶴岡市荒沢字狩籠","lat":"38.50833333","lng":"139.7816667"},{"id":"35332","name":"村山","kana":"ﾑﾗﾔﾏ","address":"村山市大字大久保字寄込","lat":"38.46","lng":"140.3483333"},{"id":"35334","name":"東根","kana":"ﾋｶﾞｼﾈ","address":"東根市大字羽入字柏原新林　山形航空気象観測所","lat":"38.41166667","lng":"140.37"},{"id":"35361","name":"大井沢","kana":"ｵｵｲｻﾜ","address":"西村山郡西川町大井沢字中村","lat":"38.39","lng":"139.9933333"},{"id":"35376","name":"左沢","kana":"ｱﾃﾗｻﾞﾜ","address":"西村山郡大江町本郷字下夕原己","lat":"38.37","lng":"140.1916667"},{"id":"35426","name":"山形","kana":"ﾔﾏｶﾞﾀ","address":"山形市緑町　山形地方気象台","lat":"38.255","lng":"140.345"},{"id":"35456","name":"長井","kana":"ﾅｶﾞｲ","address":"長井市平山","lat":"38.105","lng":"140.015"},{"id":"35466","name":"上山中山","kana":"ｶﾐﾉﾔﾏﾅｶﾔﾏ","address":"上山市中山字壁屋敷","lat":"38.11666667","lng":"140.2133333"},{"id":"35486","name":"小国","kana":"ｵｸﾞﾆ","address":"西置賜郡小国町増岡字下林","lat":"38.07833333","lng":"139.735"},{"id":"35511","name":"高畠","kana":"ﾀｶﾊﾀ","address":"東置賜郡高畠町安久津字加茂川原","lat":"38.00333333","lng":"140.2066667"},{"id":"35537","name":"中津川","kana":"ﾅｶﾂｶﾞﾜ","address":"西置賜郡飯豊町岩倉","lat":"37.91","lng":"139.8433333"},{"id":"35541","name":"高峰","kana":"ﾀｶﾐﾈ","address":"西置賜郡飯豊町高峰","lat":"37.99","lng":"139.9533333"},{"id":"35552","name":"米沢","kana":"ﾖﾈｻﾞﾜ","address":"米沢市アルカディア","lat":"37.91166667","lng":"140.1433333"},{"id":"36056","name":"茂庭","kana":"ﾓﾆﾜ","address":"福島市飯坂町茂庭字滑滝道","lat":"37.89166667","lng":"140.4366667"},{"id":"36066","name":"梁川","kana":"ﾔﾅｶﾞﾜ","address":"伊達市梁川町粟野字作田","lat":"37.85166667","lng":"140.5883333"},{"id":"36106","name":"桧原","kana":"ﾋﾊﾞﾗ","address":"耶麻郡北塩原村桧原字墓下","lat":"37.72166667","lng":"140.0583333"},{"id":"36127","name":"福島","kana":"ﾌｸｼﾏ","address":"福島市松木町　福島地方気象台","lat":"37.75833333","lng":"140.47"},{"id":"36151","name":"相馬","kana":"ｿｳﾏ","address":"相馬市成田字五郎右エ門橋","lat":"37.78333333","lng":"140.925"},{"id":"36176","name":"喜多方","kana":"ｷﾀｶﾀ","address":"喜多方市字押切","lat":"37.65833333","lng":"139.8633333"},{"id":"36196","name":"鷲倉","kana":"ﾜｼｸﾗ","address":"福島市土湯温泉町字鷲倉山国有林","lat":"37.66833333","lng":"140.26"},{"id":"36221","name":"飯舘","kana":"ｲｲﾀﾃ","address":"相馬郡飯舘村飯樋字笠石","lat":"37.665","lng":"140.7266667"},{"id":"36231","name":"原町","kana":"ﾊﾗﾏﾁ","address":"南相馬市原町区高見町","lat":"37.63833333","lng":"140.9833333"},{"id":"36251","name":"西会津","kana":"ﾆｼｱｲﾂﾞ","address":"耶麻郡西会津町尾野本字樋ノ口原乙","lat":"37.58833333","lng":"139.6566667"},{"id":"36276","name":"猪苗代","kana":"ｲﾅﾜｼﾛ","address":"耶麻郡猪苗代町大字千代田字中島","lat":"37.55166667","lng":"140.1083333"},{"id":"36291","name":"二本松","kana":"ﾆﾎﾝﾏﾂ","address":"二本松市金色久保","lat":"37.58333333","lng":"140.43"},{"id":"36307","name":"津島","kana":"ﾂｼﾏ","address":"双葉郡浪江町下津島字町","lat":"37.56","lng":"140.7533333"},{"id":"36342","name":"金山","kana":"ｶﾈﾔﾏ","address":"大沼郡金山町大字中川字沖根原","lat":"37.47333333","lng":"139.5283333"},{"id":"36361","name":"若松","kana":"ﾜｶﾏﾂ","address":"会津若松市材木町　若松特別地域気象観測所","lat":"37.48833333","lng":"139.91"},{"id":"36391","name":"船引","kana":"ﾌﾈﾋｷ","address":"田村市船引町船引字新房院","lat":"37.435","lng":"140.5766667"},{"id":"36411","name":"浪江","kana":"ﾅﾐｴ","address":"双葉郡浪江町大字川添字北上ノ原","lat":"37.49166667","lng":"140.965"},{"id":"36426","name":"只見","kana":"ﾀﾀﾞﾐ","address":"南会津郡只見町只見字原","lat":"37.34333333","lng":"139.3133333"},{"id":"36461","name":"湖南","kana":"ｺﾅﾝ","address":"郡山市湖南町福良字家老","lat":"37.38833333","lng":"140.09"},{"id":"36476","name":"郡山","kana":"ｺｵﾘﾔﾏ","address":"郡山市安積町成田字東丸山","lat":"37.36833333","lng":"140.33"},{"id":"36501","name":"川内","kana":"ｶﾜｳﾁ","address":"双葉郡川内村上川内字小山平","lat":"37.33666667","lng":"140.8083333"},{"id":"36511","name":"富岡","kana":"ﾄﾐｵｶ","address":"双葉郡富岡町小浜","lat":"37.34666667","lng":"141.0166667"},{"id":"36536","name":"南郷","kana":"ﾅﾝｺﾞｳ","address":"南会津郡南会津町界字梨木平","lat":"37.265","lng":"139.5366667"},{"id":"36562","name":"湯本","kana":"ﾕﾓﾄ","address":"岩瀬郡天栄村田良尾字持石","lat":"37.27666667","lng":"140.0633333"},{"id":"36571","name":"長沼","kana":"ﾅｶﾞﾇﾏ","address":"須賀川市長沼字町尻","lat":"37.28833333","lng":"140.2183333"},{"id":"36581","name":"玉川","kana":"ﾀﾏｶﾜ","address":"石川郡玉川村大字北須釜字はばき田　福島航空気象観測所","lat":"37.22666667","lng":"140.4266667"},{"id":"36591","name":"小野新町","kana":"ｵﾉﾆｲﾏﾁ","address":"田村郡小野町小野新町字舘廻","lat":"37.28666667","lng":"140.625"},{"id":"36597","name":"川前","kana":"ｶﾜﾏｴ","address":"いわき市川前町下桶売字久保田","lat":"37.24666667","lng":"140.7233333"},{"id":"36611","name":"広野","kana":"ﾋﾛﾉ","address":"双葉郡広野町下北迫字大谷地原","lat":"37.23333333","lng":"141"},{"id":"36641","name":"田島","kana":"ﾀｼﾞﾏ","address":"南会津郡南会津町田島字東下原","lat":"37.20666667","lng":"139.795"},{"id":"36667","name":"白河","kana":"ｼﾗｶﾜ","address":"白河市郭内　白河特別地域気象観測所","lat":"37.13166667","lng":"140.215"},{"id":"36676","name":"石川","kana":"ｲｼｶﾜ","address":"石川郡石川町双里字本宮","lat":"37.14666667","lng":"140.46"},{"id":"36716","name":"桧枝岐","kana":"ﾋﾉｴﾏﾀ","address":"南会津郡檜枝岐村字上河原","lat":"37.01","lng":"139.375"},{"id":"36726","name":"舘岩","kana":"ﾀﾃｲﾜ","address":"南会津郡南会津町松戸原","lat":"37.09166667","lng":"139.5316667"},{"id":"36781","name":"平","kana":"ﾀｲﾗ","address":"いわき市好間町今新田字宮西","lat":"37.065","lng":"140.8766667"},{"id":"36821","name":"東白川","kana":"ﾋｶﾞｼｼﾗｶﾜ","address":"東白川郡塙町大字上石井字新田","lat":"36.93833333","lng":"140.4083333"},{"id":"36836","name":"山田","kana":"ﾔﾏﾀﾞ","address":"いわき市山田町大谷","lat":"36.93333333","lng":"140.7333333"},{"id":"36846","name":"小名浜","kana":"ｵﾅﾊﾏ","address":"いわき市小名浜字船引場　小名浜特別地域気象観測所","lat":"36.94666667","lng":"140.9033333"},{"id":"40041","name":"花園","kana":"ﾊﾅｿﾞﾉ","address":"北茨城市華川町花園","lat":"36.86833333","lng":"140.6366667"},{"id":"40046","name":"北茨城","kana":"ｷﾀｲﾊﾞﾗｷ","address":"北茨城市関南町関本下","lat":"36.83333333","lng":"140.7716667"},{"id":"40061","name":"大子","kana":"ﾀﾞｲｺﾞ","address":"久慈郡大子町大子","lat":"36.77833333","lng":"140.345"},{"id":"40066","name":"徳田","kana":"ﾄｸﾀﾞ","address":"常陸太田市徳田町","lat":"36.77833333","lng":"140.4816667"},{"id":"40076","name":"大能","kana":"ｵｵﾉｳ","address":"高萩市大能","lat":"36.74333333","lng":"140.5933333"},{"id":"40091","name":"常陸大宮","kana":"ﾋﾀﾁｵｵﾐﾔ","address":"常陸大宮市上小瀬","lat":"36.60666667","lng":"140.325"},{"id":"40126","name":"中野","kana":"ﾅｶﾉ","address":"常陸太田市中野町","lat":"36.515","lng":"140.4733333"},{"id":"40136","name":"日立","kana":"ﾋﾀﾁ","address":"日立市会瀬町","lat":"36.58","lng":"140.645"},{"id":"40181","name":"門井","kana":"ｶﾄﾞｲ","address":"筑西市門井","lat":"36.33333333","lng":"140.0333333"},{"id":"40191","name":"笠間","kana":"ｶｻﾏ","address":"笠間市箱田","lat":"36.395","lng":"140.24"},{"id":"40201","name":"水戸","kana":"ﾐﾄ","address":"水戸市金町　水戸地方気象台","lat":"36.38","lng":"140.4666667"},{"id":"40221","name":"古河","kana":"ｺｶﾞ","address":"古河市北町","lat":"36.20166667","lng":"139.7166667"},{"id":"40231","name":"下館","kana":"ｼﾓﾀﾞﾃ","address":"筑西市西石田","lat":"36.28166667","lng":"139.9883333"},{"id":"40241","name":"柿岡","kana":"ｶｷｵｶ","address":"石岡市柿岡","lat":"36.23333333","lng":"140.1883333"},{"id":"40251","name":"美野里","kana":"ﾐﾉﾘ","address":"小美玉市部室","lat":"36.23666667","lng":"140.325"},{"id":"40281","name":"下妻","kana":"ｼﾓﾂﾏ","address":"下妻市二本紀","lat":"36.16833333","lng":"139.945"},{"id":"40311","name":"鉾田","kana":"ﾎｺﾀ","address":"鉾田市安房","lat":"36.16833333","lng":"140.5266667"},{"id":"40326","name":"坂東","kana":"ﾊﾞﾝﾄﾞｳ","address":"坂東市辺田","lat":"36.035","lng":"139.8933333"},{"id":"40336","name":"つくば","kana":"ﾂｸﾊﾞ","address":"つくば市長峰　高層気象台","lat":"36.05666667","lng":"140.125"},{"id":"40341","name":"土浦","kana":"ﾂﾁｳﾗ","address":"土浦市木田余東台","lat":"36.10333333","lng":"140.22"},{"id":"40391","name":"江戸崎","kana":"ｴﾄﾞｻｷ","address":"稲敷市江戸崎甲","lat":"35.96","lng":"140.32"},{"id":"40406","name":"鹿嶋","kana":"ｶｼﾏ","address":"鹿嶋市城山","lat":"35.96333333","lng":"140.6216667"},{"id":"40426","name":"龍ケ崎","kana":"ﾘｭｳｶﾞｻｷ","address":"龍ケ崎市大徳町","lat":"35.89","lng":"140.2116667"},{"id":"41011","name":"那須高原","kana":"ﾅｽｺｳｹﾞﾝ","address":"那須郡那須町大島","lat":"37.12333333","lng":"140.035"},{"id":"41076","name":"五十里","kana":"ｲｶﾘ","address":"日光市五十里堀割","lat":"36.92166667","lng":"139.695"},{"id":"41091","name":"黒磯","kana":"ｸﾛｲｿ","address":"那須塩原市埼玉","lat":"36.98166667","lng":"140.0183333"},{"id":"41116","name":"土呂部","kana":"ﾄﾞﾛﾌﾞ","address":"日光市土呂部","lat":"36.89166667","lng":"139.5683333"},{"id":"41141","name":"大田原","kana":"ｵｵﾀﾜﾗ","address":"大田原市宇田川","lat":"36.84","lng":"140.035"},{"id":"41166","name":"奥日光","kana":"ｵｸﾆｯｺｳ","address":"日光市中宮祠　日光特別地域気象観測所","lat":"36.73833333","lng":"139.5"},{"id":"41172","name":"日光東町","kana":"ﾆｯｺｳﾋｶﾞｼﾏﾁ","address":"日光市稲荷町","lat":"36.75","lng":"139.615"},{"id":"41181","name":"塩谷","kana":"ｼｵﾔ","address":"塩谷郡塩谷町大字田所","lat":"36.75666667","lng":"139.8833333"},{"id":"41211","name":"足尾","kana":"ｱｼｵ","address":"日光市足尾町","lat":"36.64666667","lng":"139.4483333"},{"id":"41241","name":"高根沢","kana":"ﾀｶﾈｻﾞﾜ","address":"塩谷郡高根沢町上高根沢台の原","lat":"36.60666667","lng":"139.9983333"},{"id":"41247","name":"那須烏山","kana":"ﾅｽｶﾗｽﾔﾏ","address":"那須烏山市森田字小塙前","lat":"36.64166667","lng":"140.1166667"},{"id":"41271","name":"鹿沼","kana":"ｶﾇﾏ","address":"鹿沼市見野","lat":"36.59166667","lng":"139.735"},{"id":"41277","name":"宇都宮","kana":"ｳﾂﾉﾐﾔ","address":"宇都宮市明保野町　宇都宮地方気象台","lat":"36.54833333","lng":"139.8683333"},{"id":"41311","name":"葛生","kana":"ｸｽﾞｳ","address":"佐野市豊代町","lat":"36.43166667","lng":"139.59"},{"id":"41331","name":"真岡","kana":"ﾓｵｶ","address":"真岡市下籠谷","lat":"36.47666667","lng":"139.9866667"},{"id":"41356","name":"足利","kana":"ｱｼｶｶﾞ","address":"足利市元学町","lat":"36.34166667","lng":"139.4616667"},{"id":"41361","name":"佐野","kana":"ｻﾉ","address":"佐野市田沼町","lat":"36.36333333","lng":"139.57"},{"id":"41371","name":"栃木","kana":"ﾄﾁｷﾞ","address":"栃木市平井町","lat":"36.37333333","lng":"139.7033333"},{"id":"41376","name":"小山","kana":"ｵﾔﾏ","address":"小山市出井","lat":"36.33833333","lng":"139.83"},{"id":"42046","name":"藤原","kana":"ﾌｼﾞﾜﾗ","address":"利根郡みなかみ町藤原字屋倉","lat":"36.86333333","lng":"139.0583333"},{"id":"42091","name":"みなかみ","kana":"ﾐﾅｶﾐ","address":"利根郡みなかみ町湯原","lat":"36.77333333","lng":"138.965"},{"id":"42106","name":"片品","kana":"ｶﾀｼﾅ","address":"利根郡片品村鎌田","lat":"36.77166667","lng":"139.2383333"},{"id":"42121","name":"草津","kana":"ｸｻﾂ","address":"吾妻郡草津町草津","lat":"36.61666667","lng":"138.5916667"},{"id":"42146","name":"沼田","kana":"ﾇﾏﾀ","address":"沼田市井土上町","lat":"36.66833333","lng":"139.0216667"},{"id":"42186","name":"中之条","kana":"ﾅｶﾉｼﾞｮｳ","address":"吾妻郡中之条町伊勢町","lat":"36.58666667","lng":"138.85"},{"id":"42221","name":"田代","kana":"ﾀｼﾛ","address":"吾妻郡嬬恋村田代","lat":"36.46333333","lng":"138.4633333"},{"id":"42241","name":"榛名山","kana":"ﾊﾙﾅｻﾝ","address":"高崎市榛名湖町沼ノ原甲","lat":"36.47166667","lng":"138.8733333"},{"id":"42251","name":"前橋","kana":"ﾏｴﾊﾞｼ","address":"前橋市昭和町　前橋地方気象台","lat":"36.405","lng":"139.06"},{"id":"42261","name":"黒保根","kana":"ｸﾛﾎﾈ","address":"桐生市黒保根町水沼","lat":"36.50166667","lng":"139.2833333"},{"id":"42266","name":"桐生","kana":"ｷﾘｭｳ","address":"桐生市元宿町","lat":"36.41","lng":"139.325"},{"id":"42286","name":"上里見","kana":"ｶﾐｻﾄﾐ","address":"高崎市上里見町","lat":"36.37666667","lng":"138.895"},{"id":"42302","name":"伊勢崎","kana":"ｲｾｻｷ","address":"伊勢崎市宮子町","lat":"36.33166667","lng":"139.165"},{"id":"42326","name":"西野牧","kana":"ﾆｼﾉﾏｷ","address":"甘楽郡下仁田町西野牧","lat":"36.245","lng":"138.7066667"},{"id":"42341","name":"藤岡","kana":"ﾌｼﾞｵｶ","address":"藤岡市藤岡","lat":"36.24166667","lng":"139.07"},{"id":"42366","name":"館林","kana":"ﾀﾃﾊﾞﾔｼ","address":"館林市富士原町","lat":"36.24","lng":"139.5133333"},{"id":"42396","name":"神流","kana":"ｶﾝﾅ","address":"多野郡神流町大字黒田字坂井道下","lat":"36.10833333","lng":"138.8966667"},{"id":"43051","name":"寄居","kana":"ﾖﾘｲ","address":"大里郡寄居町大字折原","lat":"36.105","lng":"139.1833333"},{"id":"43056","name":"熊谷","kana":"ｸﾏｶﾞﾔ","address":"熊谷市桜町　熊谷地方気象台","lat":"36.15","lng":"139.38"},{"id":"43091","name":"上吉田","kana":"ｶﾐﾖｼﾀﾞ","address":"秩父市上吉田","lat":"36.05333333","lng":"138.98"},{"id":"43121","name":"鴻巣","kana":"ｺｳﾉｽ","address":"鴻巣市中央","lat":"36.065","lng":"139.5216667"},{"id":"43126","name":"久喜","kana":"ｸｷ","address":"久喜市六万部","lat":"36.08666667","lng":"139.635"},{"id":"43151","name":"三峰","kana":"ﾐﾂﾐﾈ","address":"秩父市三峰","lat":"35.92666667","lng":"138.9233333"},{"id":"43156","name":"秩父","kana":"ﾁﾁﾌﾞ","address":"秩父市上町　秩父特別地域気象観測所","lat":"35.99","lng":"139.0733333"},{"id":"43157","name":"浦山","kana":"ｳﾗﾔﾏ","address":"秩父市浦山","lat":"35.92","lng":"139.07"},{"id":"43162","name":"ときがわ","kana":"ﾄｷｶﾞﾜ","address":"比企郡ときがわ町大字大野字宮澤","lat":"35.99","lng":"139.2066667"},{"id":"43171","name":"鳩山","kana":"ﾊﾄﾔﾏ","address":"比企郡鳩山町大字赤沼","lat":"35.985","lng":"139.335"},{"id":"43231","name":"飯能","kana":"ﾊﾝﾉｳ","address":"飯能市征矢町","lat":"35.83833333","lng":"139.3216667"},{"id":"43241","name":"さいたま","kana":"ｻｲﾀﾏ","address":"さいたま市桜区大字宿","lat":"35.875","lng":"139.5866667"},{"id":"43256","name":"越谷","kana":"ｺｼｶﾞﾔ","address":"越谷市大字北後谷","lat":"35.88333333","lng":"139.7566667"},{"id":"43266","name":"所沢","kana":"ﾄｺﾛｻﾞﾜ","address":"所沢市勝楽寺","lat":"35.77333333","lng":"139.4133333"},{"id":"44046","name":"小河内","kana":"ｵｺﾞｳﾁ","address":"西多摩郡奥多摩町原","lat":"35.79166667","lng":"139.05"},{"id":"44051","name":"小沢","kana":"ｵｻﾞﾜ","address":"西多摩郡檜原村","lat":"35.735","lng":"139.1233333"},{"id":"44056","name":"青梅","kana":"ｵｳﾒ","address":"青梅市新町","lat":"35.78833333","lng":"139.3116667"},{"id":"44071","name":"練馬","kana":"ﾈﾘﾏ","address":"練馬区石神井台","lat":"35.73833333","lng":"139.5916667"},{"id":"44112","name":"八王子","kana":"ﾊﾁｵｳｼﾞ","address":"八王子市元本郷町","lat":"35.66666667","lng":"139.3166667"},{"id":"44116","name":"府中","kana":"ﾌﾁｭｳ","address":"府中市幸町","lat":"35.68333333","lng":"139.4833333"},{"id":"44126","name":"世田谷","kana":"ｾﾀｶﾞﾔ","address":"世田谷区岡本","lat":"35.62666667","lng":"139.62"},{"id":"44132","name":"東京","kana":"ﾄｳｷｮｳ","address":"千代田区北の丸公園　東京管区気象台","lat":"35.69166667","lng":"139.75"},{"id":"44136","name":"江戸川臨海","kana":"ｴﾄﾞｶﾞﾜﾘﾝｶｲ","address":"江戸川区臨海町","lat":"35.63833333","lng":"139.8633333"},{"id":"44166","name":"羽田","kana":"ﾊﾈﾀﾞ","address":"大田区羽田空港　東京航空地方気象台","lat":"35.55333333","lng":"139.78"},{"id":"44172","name":"大島","kana":"ｵｵｼﾏ","address":"大島町元町字家の上　大島特別地域気象観測所","lat":"34.74833333","lng":"139.3616667"},{"id":"44173","name":"大島北ノ山","kana":"ｵｵｼﾏｷﾀﾉﾔﾏ","address":"大島町元町字北の山　大島航空気象観測所","lat":"34.78166667","lng":"139.36"},{"id":"44191","name":"利島","kana":"ﾄｼﾏ","address":"利島村","lat":"34.52833333","lng":"139.2816667"},{"id":"44207","name":"新島","kana":"ﾆｲｼﾞﾏ","address":"新島村川原　新島航空気象観測所","lat":"34.36833333","lng":"139.2683333"},{"id":"44216","name":"神津島","kana":"ｺｳﾂﾞｼﾏ","address":"神津島村金長　神津島航空気象観測所","lat":"34.18833333","lng":"139.1333333"},{"id":"44226","name":"三宅島","kana":"ﾐﾔｹｼﾞﾏ","address":"三宅村神着　三宅島特別地域気象観測所","lat":"34.12333333","lng":"139.52"},{"id":"44228","name":"三宅坪田","kana":"ﾐﾔｹﾂﾎﾞﾀ","address":"三宅村坪田　三宅島航空気象観測所","lat":"34.07333333","lng":"139.56"},{"id":"44262","name":"八重見ヶ原","kana":"ﾔｴﾐｶﾞﾊﾗ","address":"八丈島八丈町大賀郷　八丈島航空気象観測所","lat":"33.115","lng":"139.785"},{"id":"44263","name":"八丈島","kana":"ﾊﾁｼﾞｮｳｼﾞﾏ","address":"八丈島八丈町大賀郷　八丈島特別地域気象観測所","lat":"33.12166667","lng":"139.7783333"},{"id":"44281","name":"青ヶ島","kana":"ｱｵｶﾞｼﾏ","address":"青ヶ島村","lat":"32.46666667","lng":"139.76"},{"id":"44301","name":"父島","kana":"ﾁﾁｼﾞﾏ","address":"小笠原村父島字西町　父島気象観測所","lat":"27.09166667","lng":"142.19"},{"id":"44316","name":"母島","kana":"ﾊﾊｼﾞﾏ","address":"小笠原村母島字評議平","lat":"26.635","lng":"142.1616667"},{"id":"45061","name":"我孫子","kana":"ｱﾋﾞｺ","address":"我孫子市新木野","lat":"35.86333333","lng":"140.11"},{"id":"45081","name":"香取","kana":"ｶﾄﾘ","address":"香取市大根","lat":"35.85833333","lng":"140.5016667"},{"id":"45086","name":"東庄","kana":"ﾄｳﾉｼｮｳ","address":"香取郡東庄町小南","lat":"35.795","lng":"140.6816667"},{"id":"45106","name":"船橋","kana":"ﾌﾅﾊﾞｼ","address":"船橋市薬円台","lat":"35.71166667","lng":"140.0433333"},{"id":"45116","name":"佐倉","kana":"ｻｸﾗ","address":"佐倉市角来字屋敷前","lat":"35.72833333","lng":"140.2116667"},{"id":"45121","name":"成田","kana":"ﾅﾘﾀ","address":"成田市古込字込前　成田航空地方気象台","lat":"35.76333333","lng":"140.385"},{"id":"45148","name":"銚子","kana":"ﾁｮｳｼ","address":"銚子市川口町　銚子地方気象台","lat":"35.73833333","lng":"140.8566667"},{"id":"45181","name":"横芝光","kana":"ﾖｺｼﾊﾞﾋｶﾘ","address":"山武郡横芝光町宮川","lat":"35.655","lng":"140.505"},{"id":"45212","name":"千葉","kana":"ﾁﾊﾞ","address":"千葉市中央区中央港　千葉特別地域気象観測所","lat":"35.60166667","lng":"140.1033333"},{"id":"45261","name":"茂原","kana":"ﾓﾊﾞﾗ","address":"茂原市高師","lat":"35.43666667","lng":"140.2933333"},{"id":"45282","name":"木更津","kana":"ｷｻﾗﾂﾞ","address":"木更津市請西南","lat":"35.36166667","lng":"139.94"},{"id":"45291","name":"牛久","kana":"ｳｼｸ","address":"市原市米沢","lat":"35.39666667","lng":"140.1483333"},{"id":"45326","name":"坂畑","kana":"ｻｶﾊﾀ","address":"君津市坂畑","lat":"35.235","lng":"140.0983333"},{"id":"45331","name":"大多喜","kana":"ｵｵﾀｷ","address":"夷隅郡大多喜町松尾","lat":"35.25166667","lng":"140.215"},{"id":"45346","name":"鋸南","kana":"ｷｮﾅﾝ","address":"安房郡鋸南町大六","lat":"35.12166667","lng":"139.8366667"},{"id":"45361","name":"鴨川","kana":"ｶﾓｶﾞﾜ","address":"鴨川市横渚","lat":"35.11166667","lng":"140.1"},{"id":"45371","name":"勝浦","kana":"ｶﾂｳﾗ","address":"勝浦市墨名　勝浦特別地域気象観測所","lat":"35.15","lng":"140.3116667"},{"id":"45401","name":"館山","kana":"ﾀﾃﾔﾏ","address":"館山市長須賀　館山特別地域気象観測所","lat":"34.98666667","lng":"139.865"},{"id":"46001","name":"相模湖","kana":"ｻｶﾞﾐｺ","address":"相模原市緑区与瀬","lat":"35.61333333","lng":"139.1933333"},{"id":"46046","name":"相模原中央","kana":"ｻｶﾞﾐﾊﾗﾁｭｳｵｳ","address":"相模原市中央区中央","lat":"35.57166667","lng":"139.37"},{"id":"46061","name":"日吉","kana":"ﾋﾖｼ","address":"横浜市港北区日吉","lat":"35.55166667","lng":"139.65"},{"id":"46076","name":"丹沢湖","kana":"ﾀﾝｻﾞﾜｺ","address":"足柄上郡山北町神尾田","lat":"35.41","lng":"139.0433333"},{"id":"46091","name":"海老名","kana":"ｴﾋﾞﾅ","address":"海老名市中新田","lat":"35.43333333","lng":"139.3866667"},{"id":"46106","name":"横浜","kana":"ﾖｺﾊﾏ","address":"横浜市中区山手町　横浜地方気象台","lat":"35.43833333","lng":"139.6516667"},{"id":"46136","name":"平塚","kana":"ﾋﾗﾂｶ","address":"平塚市公所","lat":"35.345","lng":"139.305"},{"id":"46141","name":"辻堂","kana":"ﾂｼﾞﾄﾞｳ","address":"藤沢市辻堂西海岸","lat":"35.32","lng":"139.45"},{"id":"46161","name":"箱根","kana":"ﾊｺﾈ","address":"足柄下郡箱根町芦ノ湯","lat":"35.22166667","lng":"139.0416667"},{"id":"46166","name":"小田原","kana":"ｵﾀﾞﾜﾗ","address":"小田原市扇町","lat":"35.27666667","lng":"139.155"},{"id":"46211","name":"三浦","kana":"ﾐｳﾗ","address":"三浦市初声町下宮田","lat":"35.17833333","lng":"139.63"},{"id":"48031","name":"野沢温泉","kana":"ﾉｻﾞﾜｵﾝｾﾝ","address":"下高井郡野沢温泉村大字豊郷字南原","lat":"36.91166667","lng":"138.4416667"},{"id":"48061","name":"信濃町","kana":"ｼﾅﾉﾏﾁ","address":"上水内郡信濃町柏原字小丸山","lat":"36.80833333","lng":"138.1966667"},{"id":"48066","name":"飯山","kana":"ｲｲﾔﾏ","address":"飯山市大字飯山字大道東","lat":"36.875","lng":"138.375"},{"id":"48097","name":"小谷","kana":"ｵﾀﾘ","address":"北安曇郡小谷村大字中土","lat":"36.82166667","lng":"137.93"},{"id":"48141","name":"白馬","kana":"ﾊｸﾊﾞ","address":"北安曇郡白馬村北城","lat":"36.69833333","lng":"137.8616667"},{"id":"48146","name":"鬼無里","kana":"ｷﾅｻ","address":"長野市鬼無里","lat":"36.68833333","lng":"137.965"},{"id":"48156","name":"長野","kana":"ﾅｶﾞﾉ","address":"長野市箱清水　長野地方気象台","lat":"36.66166667","lng":"138.1916667"},{"id":"48172","name":"笠岳","kana":"ｶｻﾀﾞｹ","address":"上高井郡高山村大字奥山田字山田入","lat":"36.665","lng":"138.4583333"},{"id":"48191","name":"大町","kana":"ｵｵﾏﾁ","address":"大町市大町","lat":"36.52333333","lng":"137.8316667"},{"id":"48196","name":"信州新町","kana":"ｼﾝｼｭｳｼﾝﾏﾁ","address":"長野市信州新町牧田中","lat":"36.54833333","lng":"137.9966667"},{"id":"48216","name":"菅平","kana":"ｽｶﾞﾀﾞｲﾗ","address":"上田市菅平高原","lat":"36.53166667","lng":"138.325"},{"id":"48247","name":"聖高原","kana":"ﾋｼﾞﾘｺｳｹﾞﾝ","address":"東筑摩郡麻績村麻字猿ヶ馬場峯山","lat":"36.48666667","lng":"138.0683333"},{"id":"48256","name":"上田","kana":"ｳｴﾀﾞ","address":"上田市古里","lat":"36.4","lng":"138.265"},{"id":"48296","name":"穂高","kana":"ﾎﾀｶ","address":"安曇野市穂高","lat":"36.34333333","lng":"137.8816667"},{"id":"48321","name":"東御","kana":"ﾄｳﾐ","address":"東御市新張","lat":"36.38333333","lng":"138.3833333"},{"id":"48331","name":"軽井沢","kana":"ｶﾙｲｻﾞﾜ","address":"北佐久郡軽井沢町大字追分　軽井沢特別地域気象観測所","lat":"36.34166667","lng":"138.5466667"},{"id":"48346","name":"上高地","kana":"ｶﾐｺｳﾁ","address":"松本市安曇上高地国有林","lat":"36.24833333","lng":"137.6333333"},{"id":"48361","name":"松本","kana":"ﾏﾂﾓﾄ","address":"松本市沢村　松本特別地域気象観測所","lat":"36.24666667","lng":"137.97"},{"id":"48363","name":"松本今井","kana":"ﾏﾂﾓﾄｲﾏｲ","address":"松本市大字空港東　松本航空気象観測所","lat":"36.16666667","lng":"137.9216667"},{"id":"48371","name":"鹿教湯","kana":"ｶｹﾕ","address":"上田市鹿教湯温泉","lat":"36.30166667","lng":"138.1366667"},{"id":"48381","name":"立科","kana":"ﾀﾃｼﾅ","address":"北佐久郡立科町芦田","lat":"36.27166667","lng":"138.3133333"},{"id":"48386","name":"佐久","kana":"ｻｸ","address":"佐久市中込","lat":"36.24666667","lng":"138.4766667"},{"id":"48436","name":"白樺湖","kana":"ｼﾗｶﾊﾞｺ","address":"茅野市北山","lat":"36.105","lng":"138.2283333"},{"id":"48466","name":"奈川","kana":"ﾅｶﾞﾜ","address":"松本市奈川","lat":"36.08833333","lng":"137.6833333"},{"id":"48491","name":"諏訪","kana":"ｽﾜ","address":"諏訪市湖岸通り　諏訪特別地域気象観測所","lat":"36.045","lng":"138.1083333"},{"id":"48516","name":"北相木","kana":"ｷﾀｱｲｷ","address":"南佐久郡北相木村字板置場","lat":"36.07166667","lng":"138.6116667"},{"id":"48531","name":"開田高原","kana":"ｶｲﾀﾞｺｳｹﾞﾝ","address":"木曽郡木曽町開田高原西野","lat":"35.93833333","lng":"137.6016667"},{"id":"48536","name":"木祖薮原","kana":"ｷｿﾔﾌﾞﾊﾗ","address":"木曽郡木祖村薮原","lat":"35.93666667","lng":"137.7866667"},{"id":"48546","name":"辰野","kana":"ﾀﾂﾉ","address":"上伊那郡辰野町中央","lat":"35.98333333","lng":"137.9833333"},{"id":"48556","name":"高遠","kana":"ﾀｶﾄｵ","address":"伊那市高遠町藤沢","lat":"35.95333333","lng":"138.1083333"},{"id":"48561","name":"原村","kana":"ﾊﾗﾑﾗ","address":"諏訪郡原村向坂上","lat":"35.97","lng":"138.22"},{"id":"48571","name":"野辺山","kana":"ﾉﾍﾞﾔﾏ","address":"南佐久郡南牧村野辺山","lat":"35.94833333","lng":"138.4716667"},{"id":"48601","name":"御嶽山","kana":"ｵﾝﾀｹｻﾝ","address":"木曽郡王滝村御岳国有林","lat":"35.87166667","lng":"137.5033333"},{"id":"48606","name":"木曽福島","kana":"ｷｿﾌｸｼﾏ","address":"木曽郡木曽町福島","lat":"35.84","lng":"137.6883333"},{"id":"48621","name":"伊那","kana":"ｲﾅ","address":"伊那市下新田","lat":"35.825","lng":"137.955"},{"id":"48681","name":"宮田高原","kana":"ﾐﾔﾀﾞｺｳｹﾞﾝ","address":"上伊那郡宮田村","lat":"35.77333333","lng":"137.885"},{"id":"48691","name":"杉島","kana":"ｽｷﾞｼﾏ","address":"伊那市長谷杉島","lat":"35.72666667","lng":"138.0933333"},{"id":"48716","name":"須原","kana":"ｽﾊﾗ","address":"木曽郡大桑村須原殿","lat":"35.69833333","lng":"137.6916667"},{"id":"48717","name":"南木曽","kana":"ﾅｷﾞｿ","address":"木曽郡南木曽町読書","lat":"35.61","lng":"137.62"},{"id":"48731","name":"飯島","kana":"ｲｲｼﾞﾏ","address":"上伊那郡飯島町七久保","lat":"35.65333333","lng":"137.8983333"},{"id":"48737","name":"大鹿","kana":"ｵｵｼｶ","address":"下伊那郡大鹿村大河原","lat":"35.55666667","lng":"138.04"},{"id":"48767","name":"飯田","kana":"ｲｲﾀﾞ","address":"飯田市高羽町　飯田特別地域気象観測所","lat":"35.52333333","lng":"137.8216667"},{"id":"48826","name":"浪合","kana":"ﾅﾐｱｲ","address":"下伊那郡阿智村浪合","lat":"35.37333333","lng":"137.6916667"},{"id":"48836","name":"阿南","kana":"ｱﾅﾝ","address":"下伊那郡阿南町南条","lat":"35.31333333","lng":"137.8116667"},{"id":"48841","name":"南信濃","kana":"ﾐﾅﾐｼﾅﾉ","address":"飯田市南信濃和田字夜川瀬","lat":"35.32166667","lng":"137.9316667"},{"id":"49036","name":"大泉","kana":"ｵｵｲｽﾞﾐ","address":"北杜市大泉町谷戸","lat":"35.86166667","lng":"138.3866667"},{"id":"49052","name":"乙女湖","kana":"ｵﾄﾒｺ","address":"山梨市牧丘町柳平","lat":"35.80666667","lng":"138.655"},{"id":"49086","name":"韮崎","kana":"ﾆﾗｻｷ","address":"韮崎市大草町若尾","lat":"35.69333333","lng":"138.4483333"},{"id":"49142","name":"甲府","kana":"ｺｳﾌ","address":"甲府市飯田　甲府地方気象台","lat":"35.66666667","lng":"138.5533333"},{"id":"49151","name":"勝沼","kana":"ｶﾂﾇﾏ","address":"甲州市勝沼町勝沼","lat":"35.66333333","lng":"138.725"},{"id":"49161","name":"大月","kana":"ｵｵﾂｷ","address":"大月市大月","lat":"35.60833333","lng":"138.9383333"},{"id":"49172","name":"上野原","kana":"ｳｴﾉﾊﾗ","address":"上野原市松留","lat":"35.62","lng":"139.105"},{"id":"49187","name":"富士川","kana":"ﾌｼﾞｶﾜ","address":"南巨摩郡富士川町最勝寺","lat":"35.56166667","lng":"138.4483333"},{"id":"49196","name":"古関","kana":"ﾌﾙｾｷ","address":"甲府市古関町","lat":"35.52833333","lng":"138.615"},{"id":"49236","name":"切石","kana":"ｷﾘｲｼ","address":"南巨摩郡身延町切石","lat":"35.46666667","lng":"138.4416667"},{"id":"49251","name":"河口湖","kana":"ｶﾜｸﾞﾁｺ","address":"南都留郡富士河口湖町船津　河口湖特別地域気象観測所","lat":"35.5","lng":"138.76"},{"id":"49256","name":"山中","kana":"ﾔﾏﾅｶ","address":"南都留郡山中湖村山中字梨ヶ原","lat":"35.43666667","lng":"138.8366667"},{"id":"49316","name":"南部","kana":"ﾅﾝﾌﾞ","address":"南巨摩郡南部町南部","lat":"35.28833333","lng":"138.445"},{"id":"50056","name":"白糸","kana":"ｼﾗｲﾄ","address":"富士宮市原","lat":"35.31166667","lng":"138.5783333"},{"id":"50106","name":"井川","kana":"ｲｶﾜ","address":"静岡市葵区井川","lat":"35.21666667","lng":"138.2216667"},{"id":"50112","name":"有東木","kana":"ｳﾄｳｷﾞ","address":"静岡市葵区有東木","lat":"35.20666667","lng":"138.3683333"},{"id":"50136","name":"御殿場","kana":"ｺﾞﾃﾝﾊﾞ","address":"御殿場市萩原","lat":"35.305","lng":"138.9266667"},{"id":"50196","name":"富士","kana":"ﾌｼﾞ","address":"富士市厚原","lat":"35.185","lng":"138.6633333"},{"id":"50206","name":"三島","kana":"ﾐｼﾏ","address":"三島市東本町　三島特別地域気象観測所","lat":"35.11333333","lng":"138.925"},{"id":"50226","name":"佐久間","kana":"ｻｸﾏ","address":"浜松市天竜区佐久間町浦川","lat":"35.05666667","lng":"137.7616667"},{"id":"50232","name":"春野","kana":"ﾊﾙﾉ","address":"浜松市天竜区春野町五和","lat":"35.01166667","lng":"137.945"},{"id":"50241","name":"川根本町","kana":"ｶﾜﾈﾎﾝﾁｮｳ","address":"榛原郡川根本町田代","lat":"35.10166667","lng":"138.1283333"},{"id":"50247","name":"鍵穴","kana":"ｶｷﾞｱﾅ","address":"静岡市葵区鍵穴","lat":"35.04833333","lng":"138.2466667"},{"id":"50261","name":"清水","kana":"ｼﾐｽﾞ","address":"静岡市清水区興津中町","lat":"35.05333333","lng":"138.5216667"},{"id":"50281","name":"網代","kana":"ｱｼﾞﾛ","address":"熱海市網代　網代特別地域気象観測所","lat":"35.045","lng":"139.0916667"},{"id":"50296","name":"熊","kana":"ｸﾏ","address":"浜松市天竜区熊","lat":"34.95833333","lng":"137.7333333"},{"id":"50317","name":"高根山","kana":"ﾀｶﾈｻﾝ","address":"藤枝市瀬戸谷","lat":"34.975","lng":"138.1966667"},{"id":"50331","name":"静岡","kana":"ｼｽﾞｵｶ","address":"静岡市駿河区曲金　静岡地方気象台","lat":"34.975","lng":"138.4033333"},{"id":"50371","name":"三ヶ日","kana":"ﾐｯｶﾋﾞ","address":"浜松市浜名区三ヶ日町三ヶ日","lat":"34.80166667","lng":"137.5566667"},{"id":"50386","name":"天竜","kana":"ﾃﾝﾘｭｳ","address":"浜松市天竜区船明","lat":"34.89","lng":"137.8133333"},{"id":"50391","name":"三倉","kana":"ﾐｸﾗ","address":"周智郡森町三倉","lat":"34.895","lng":"137.94"},{"id":"50416","name":"土肥","kana":"ﾄｲ","address":"伊豆市小下田","lat":"34.87666667","lng":"138.7616667"},{"id":"50426","name":"湯ケ島","kana":"ﾕｶﾞｼﾏ","address":"伊豆市市山","lat":"34.9","lng":"138.925"},{"id":"50427","name":"天城山","kana":"ｱﾏｷﾞｻﾝ","address":"伊豆市菅引字天城山菅引入","lat":"34.87166667","lng":"139.0233333"},{"id":"50456","name":"浜松","kana":"ﾊﾏﾏﾂ","address":"浜松市中央区高丘東　浜松特別地域気象観測所","lat":"34.75333333","lng":"137.7116667"},{"id":"50466","name":"掛川","kana":"ｶｹｶﾞﾜ","address":"掛川市長谷","lat":"34.76833333","lng":"137.995"},{"id":"50476","name":"菊川牧之原","kana":"ｷｸｶﾞﾜﾏｷﾉﾊﾗ","address":"菊川市倉沢","lat":"34.785","lng":"138.1383333"},{"id":"50477","name":"静岡空港","kana":"ｼｽﾞｵｶｸｳｺｳ","address":"牧之原市坂口　静岡航空気象観測所","lat":"34.795","lng":"138.1883333"},{"id":"50491","name":"松崎","kana":"ﾏﾂｻﾞｷ","address":"賀茂郡松崎町江奈","lat":"34.755","lng":"138.7833333"},{"id":"50506","name":"稲取","kana":"ｲﾅﾄﾘ","address":"賀茂郡東伊豆町稲取","lat":"34.78166667","lng":"139.0483333"},{"id":"50536","name":"磐田","kana":"ｲﾜﾀ","address":"磐田市南島","lat":"34.69166667","lng":"137.88"},{"id":"50551","name":"御前崎","kana":"ｵﾏｴｻﾞｷ","address":"御前崎市御前崎　御前崎特別地域気象観測所","lat":"34.60333333","lng":"138.2133333"},{"id":"50561","name":"石廊崎","kana":"ｲﾛｳｻﾞｷ","address":"賀茂郡南伊豆町石廊崎石室山　石廊崎特別地域気象観測所","lat":"34.60333333","lng":"138.8416667"},{"id":"51011","name":"一宮","kana":"ｲﾁﾉﾐﾔ","address":"一宮市千秋町佐野字辻田","lat":"35.29833333","lng":"136.8533333"},{"id":"51031","name":"愛西","kana":"ｱｲｻｲ","address":"愛西市江西町川原","lat":"35.21666667","lng":"136.6983333"},{"id":"51056","name":"小原","kana":"ｵﾊﾞﾗ","address":"豊田市小原町上平","lat":"35.22833333","lng":"137.285"},{"id":"51071","name":"稲武","kana":"ｲﾅﾌﾞ","address":"豊田市稲武町スソガエト","lat":"35.21166667","lng":"137.5066667"},{"id":"51077","name":"茶臼山","kana":"ﾁｬｳｽﾔﾏ","address":"北設楽郡豊根村大字坂宇場字御所平","lat":"35.22","lng":"137.66"},{"id":"51096","name":"蟹江","kana":"ｶﾆｴ","address":"海部郡蟹江町蟹江本町クノ割","lat":"35.13666667","lng":"136.7916667"},{"id":"51106","name":"名古屋","kana":"ﾅｺﾞﾔ","address":"名古屋市千種区日和町　名古屋地方気象台","lat":"35.16666667","lng":"136.965"},{"id":"51116","name":"豊田","kana":"ﾄﾖﾀ","address":"豊田市高町東山","lat":"35.13166667","lng":"137.1766667"},{"id":"51192","name":"阿蔵","kana":"ｱｿﾞｳ","address":"豊田市阿蔵町猫田","lat":"35.07833333","lng":"137.4133333"},{"id":"51216","name":"大府","kana":"ｵｵﾌﾞ","address":"大府市森岡町","lat":"34.995","lng":"136.9433333"},{"id":"51226","name":"岡崎","kana":"ｵｶｻﾞｷ","address":"岡崎市美合町地蔵野","lat":"34.91833333","lng":"137.1933333"},{"id":"51241","name":"作手","kana":"ﾂｸﾃﾞ","address":"新城市作手高里字木戸口","lat":"34.97666667","lng":"137.425"},{"id":"51247","name":"新城","kana":"ｼﾝｼﾛ","address":"新城市富沢字広瀬","lat":"34.90666667","lng":"137.5183333"},{"id":"51261","name":"セントレア","kana":"ｾﾝﾄﾚｱ","address":"常滑市セントレア　中部航空地方気象台","lat":"34.85833333","lng":"136.805"},{"id":"51271","name":"一色","kana":"ｲｯｼｷ","address":"西尾市一色町一色伊那跨","lat":"34.81166667","lng":"137.0283333"},{"id":"51281","name":"蒲郡","kana":"ｶﾞﾏｺﾞｵﾘ","address":"蒲郡市神ノ郷町上名取","lat":"34.845","lng":"137.2166667"},{"id":"51311","name":"南知多","kana":"ﾐﾅﾐﾁﾀ","address":"知多郡南知多町大字豊丘字浜見台","lat":"34.74","lng":"136.9383333"},{"id":"51331","name":"豊橋","kana":"ﾄﾖﾊｼ","address":"豊橋市神野新田町字レノ割","lat":"34.75","lng":"137.3416667"},{"id":"51346","name":"伊良湖","kana":"ｲﾗｺ","address":"田原市福江町字金五郎坂　伊良湖特別地域気象観測所","lat":"34.62833333","lng":"137.0933333"},{"id":"51356","name":"田原","kana":"ﾀﾊﾗ","address":"田原市高松町尾村崎","lat":"34.62666667","lng":"137.2216667"},{"id":"52041","name":"河合","kana":"ｶﾜｲ","address":"飛騨市河合町角川","lat":"36.305","lng":"137.1"},{"id":"52051","name":"神岡","kana":"ｶﾐｵｶ","address":"飛騨市神岡町殿","lat":"36.32166667","lng":"137.3083333"},{"id":"52081","name":"白川","kana":"ｼﾗｶﾜ","address":"大野郡白川村鳩谷字北長","lat":"36.27333333","lng":"136.8966667"},{"id":"52111","name":"栃尾","kana":"ﾄﾁｵ","address":"高山市奥飛騨温泉郷今見","lat":"36.24833333","lng":"137.5033333"},{"id":"52131","name":"御母衣","kana":"ﾐﾎﾞﾛ","address":"大野郡白川村牧","lat":"36.14666667","lng":"136.9083333"},{"id":"52137","name":"清見","kana":"ｷﾖﾐ","address":"高山市清見町大谷","lat":"36.18","lng":"137.045"},{"id":"52146","name":"高山","kana":"ﾀｶﾔﾏ","address":"高山市桐生町　高山特別地域気象観測所","lat":"36.155","lng":"137.2533333"},{"id":"52152","name":"丹生川","kana":"ﾆｭｳｶﾜ","address":"高山市丹生川町瓜田","lat":"36.18666667","lng":"137.3716667"},{"id":"52173","name":"ひるがの","kana":"ﾋﾙｶﾞﾉ","address":"郡上市高鷲町ひるがの","lat":"36.01","lng":"136.8933333"},{"id":"52181","name":"六厩","kana":"ﾑﾏﾔ","address":"高山市荘川町六厩","lat":"36.06","lng":"137.035"},{"id":"52192","name":"船山","kana":"ﾌﾅﾔﾏ","address":"高山市久々野町無数河","lat":"36.035","lng":"137.26"},{"id":"52196","name":"宮之前","kana":"ﾐﾔﾉﾏｴ","address":"高山市朝日町宮之前","lat":"36.015","lng":"137.3883333"},{"id":"52221","name":"長滝","kana":"ﾅｶﾞﾀｷ","address":"郡上市白鳥町長滝字三昧","lat":"35.92333333","lng":"136.8316667"},{"id":"52286","name":"萩原","kana":"ﾊｷﾞﾜﾗ","address":"下呂市萩原町羽根","lat":"35.88833333","lng":"137.2066667"},{"id":"52321","name":"関市板取","kana":"ｾｷｼｲﾀﾄﾞﾘ","address":"関市板取","lat":"35.72333333","lng":"136.7833333"},{"id":"52331","name":"八幡","kana":"ﾊﾁﾏﾝ","address":"郡上市八幡町旭田尻","lat":"35.75666667","lng":"136.9783333"},{"id":"52346","name":"宮地","kana":"ﾐﾔｼﾞ","address":"下呂市宮地","lat":"35.76333333","lng":"137.2883333"},{"id":"52381","name":"樽見","kana":"ﾀﾙﾐ","address":"本巣市根尾神所","lat":"35.63833333","lng":"136.6016667"},{"id":"52406","name":"金山","kana":"ｶﾅﾔﾏ","address":"下呂市金山町大船渡","lat":"35.66166667","lng":"137.16"},{"id":"52421","name":"付知","kana":"ﾂｹﾁ","address":"中津川市付知町","lat":"35.66166667","lng":"137.4266667"},{"id":"52461","name":"美濃","kana":"ﾐﾉ","address":"美濃市前野中川原","lat":"35.555","lng":"136.91"},{"id":"52476","name":"伽藍","kana":"ｶﾞﾗﾝ","address":"加茂郡八百津町伽藍谷","lat":"35.515","lng":"137.23"},{"id":"52482","name":"黒川","kana":"ｸﾛｶﾜ","address":"加茂郡白川町黒川","lat":"35.59833333","lng":"137.3183333"},{"id":"52511","name":"揖斐川","kana":"ｲﾋﾞｶﾞﾜ","address":"揖斐郡揖斐川町三輪","lat":"35.485","lng":"136.5666667"},{"id":"52536","name":"美濃加茂","kana":"ﾐﾉｶﾓ","address":"美濃加茂市西町","lat":"35.445","lng":"137.005"},{"id":"52556","name":"恵那","kana":"ｴﾅ","address":"恵那市長島町永田大洞","lat":"35.44666667","lng":"137.4033333"},{"id":"52557","name":"中津川","kana":"ﾅｶﾂｶﾞﾜ","address":"中津川市手賀野","lat":"35.47666667","lng":"137.4866667"},{"id":"52571","name":"関ケ原","kana":"ｾｷｶﾞﾊﾗ","address":"不破郡関ケ原町関ケ原","lat":"35.36333333","lng":"136.4666667"},{"id":"52581","name":"大垣","kana":"ｵｵｶﾞｷ","address":"大垣市禾森町","lat":"35.34666667","lng":"136.62"},{"id":"52586","name":"岐阜","kana":"ｷﾞﾌ","address":"岐阜市加納二之丸　岐阜地方気象台","lat":"35.4","lng":"136.7616667"},{"id":"52606","name":"多治見","kana":"ﾀｼﾞﾐ","address":"多治見市光ケ丘","lat":"35.34666667","lng":"137.1083333"},{"id":"52642","name":"上石津","kana":"ｶﾐｲｼﾂﾞ","address":"大垣市上石津町堂之上","lat":"35.24666667","lng":"136.4583333"},{"id":"53016","name":"北勢","kana":"ﾎｸｾｲ","address":"いなべ市北勢町其原","lat":"35.14333333","lng":"136.5383333"},{"id":"53041","name":"桑名","kana":"ｸﾜﾅ","address":"桑名市大字江場字正金縄","lat":"35.05","lng":"136.6933333"},{"id":"53061","name":"四日市","kana":"ﾖｯｶｲﾁ","address":"四日市市日永　四日市特別地域気象観測所","lat":"34.94","lng":"136.58"},{"id":"53091","name":"亀山","kana":"ｶﾒﾔﾏ","address":"亀山市椿世町","lat":"34.87","lng":"136.4533333"},{"id":"53112","name":"上野","kana":"ｳｴﾉ","address":"伊賀市緑ケ丘本町　上野特別地域気象観測所","lat":"34.76166667","lng":"136.1416667"},{"id":"53121","name":"笠取山","kana":"ｶｻﾄﾘﾔﾏ","address":"津市榊原町","lat":"34.725","lng":"136.3083333"},{"id":"53133","name":"津","kana":"ﾂ","address":"津市島崎町　津地方気象台","lat":"34.73333333","lng":"136.5183333"},{"id":"53141","name":"名張","kana":"ﾅﾊﾞﾘ","address":"名張市鴻之台1番町","lat":"34.62666667","lng":"136.1083333"},{"id":"53151","name":"白山","kana":"ﾊｸｻﾝ","address":"津市白山町南家城","lat":"34.625","lng":"136.3216667"},{"id":"53196","name":"小俣","kana":"ｵﾊﾞﾀ","address":"伊勢市小俣町明野","lat":"34.52833333","lng":"136.665"},{"id":"53231","name":"粥見","kana":"ｶﾕﾐ","address":"松阪市飯南町粥見","lat":"34.44833333","lng":"136.39"},{"id":"53257","name":"鳥羽","kana":"ﾄﾊﾞ","address":"鳥羽市鳥羽","lat":"34.48166667","lng":"136.825"},{"id":"53287","name":"藤坂峠","kana":"ﾌｼﾞｻｶﾄｳｹﾞ","address":"度会郡大紀町永会字中河内","lat":"34.32333333","lng":"136.4883333"},{"id":"53296","name":"南伊勢","kana":"ﾐﾅﾐｲｾ","address":"度会郡南伊勢町船越","lat":"34.345","lng":"136.6816667"},{"id":"53307","name":"阿児","kana":"ｱｺﾞ","address":"志摩市阿児町甲賀字浅野","lat":"34.30833333","lng":"136.8733333"},{"id":"53321","name":"宮川","kana":"ﾐﾔｶﾞﾜ","address":"多気郡大台町久豆","lat":"34.27833333","lng":"136.2083333"},{"id":"53326","name":"紀伊長島","kana":"ｷｲﾅｶﾞｼﾏ","address":"北牟婁郡紀北町長島","lat":"34.20833333","lng":"136.3266667"},{"id":"53378","name":"尾鷲","kana":"ｵﾜｾ","address":"尾鷲市南陽町　尾鷲特別地域気象観測所","lat":"34.06833333","lng":"136.1933333"},{"id":"53401","name":"熊野新鹿","kana":"ｸﾏﾉｱﾀｼｶ","address":"熊野市新鹿町","lat":"33.93166667","lng":"136.1383333"},{"id":"53416","name":"御浜","kana":"ﾐﾊﾏ","address":"南牟婁郡御浜町大字上野","lat":"33.85166667","lng":"135.98"},{"id":"54012","name":"粟島","kana":"ｱﾜｼﾏ","address":"岩船郡粟島浦村字内浦","lat":"38.465","lng":"139.2533333"},{"id":"54041","name":"弾崎","kana":"ﾊｼﾞｷｻﾞｷ","address":"佐渡市鷲崎字弾崎","lat":"38.33","lng":"138.5116667"},{"id":"54056","name":"高根","kana":"ﾀｶﾈ","address":"村上市高根","lat":"38.33","lng":"139.6033333"},{"id":"54086","name":"村上","kana":"ﾑﾗｶﾐ","address":"村上市三之町","lat":"38.22666667","lng":"139.4783333"},{"id":"54097","name":"三面","kana":"ﾐｵﾓﾃ","address":"村上市茎太","lat":"38.24666667","lng":"139.605"},{"id":"54157","name":"相川","kana":"ｱｲｶﾜ","address":"佐渡市相川三町目新浜町　相川特別地域気象観測所","lat":"38.02833333","lng":"138.24"},{"id":"54166","name":"両津","kana":"ﾘｮｳﾂ","address":"佐渡市両津湊","lat":"38.07333333","lng":"138.44"},{"id":"54181","name":"中条","kana":"ﾅｶｼﾞｮｳ","address":"胎内市清水","lat":"38.07666667","lng":"139.3883333"},{"id":"54191","name":"下関","kana":"ｼﾓｾｷ","address":"岩船郡関川村下関","lat":"38.09166667","lng":"139.5633333"},{"id":"54232","name":"新潟","kana":"ﾆｲｶﾞﾀ","address":"新潟市中央区美咲町　新潟地方気象台","lat":"37.89333333","lng":"139.0183333"},{"id":"54236","name":"松浜","kana":"ﾏﾂﾊﾏ","address":"新潟市東区松浜町　新潟航空気象観測所","lat":"37.955","lng":"139.1116667"},{"id":"54271","name":"羽茂","kana":"ﾊﾓﾁ","address":"佐渡市羽茂本郷","lat":"37.84166667","lng":"138.3133333"},{"id":"54296","name":"新津","kana":"ﾆｲﾂ","address":"新潟市秋葉区小戸上組","lat":"37.79166667","lng":"139.0866667"},{"id":"54301","name":"瓢湖","kana":"ﾋｮｳｺ","address":"阿賀野市中島字諏訪前","lat":"37.83333333","lng":"139.2366667"},{"id":"54311","name":"赤谷","kana":"ｱｶﾀﾞﾆ","address":"新発田市上赤谷字大檀原","lat":"37.835","lng":"139.415"},{"id":"54341","name":"巻","kana":"ﾏｷ","address":"新潟市西蒲区巻甲","lat":"37.76833333","lng":"138.9133333"},{"id":"54387","name":"寺泊","kana":"ﾃﾗﾄﾞﾏﾘ","address":"長岡市寺泊二の関","lat":"37.64","lng":"138.7666667"},{"id":"54396","name":"三条","kana":"ｻﾝｼﾞｮｳ","address":"三条市西裏館","lat":"37.64","lng":"138.955"},{"id":"54406","name":"村松","kana":"ﾑﾗﾏﾂ","address":"五泉市愛宕","lat":"37.69666667","lng":"139.1883333"},{"id":"54421","name":"津川","kana":"ﾂｶﾞﾜ","address":"東蒲原郡阿賀町津川","lat":"37.67166667","lng":"139.4466667"},{"id":"54462","name":"宮寄上","kana":"ﾐﾔﾖﾘｶﾐ","address":"加茂市宮寄上","lat":"37.58","lng":"139.14"},{"id":"54472","name":"室谷","kana":"ﾑﾛﾔ","address":"東蒲原郡阿賀町神谷丙","lat":"37.55","lng":"139.37"},{"id":"54501","name":"長岡","kana":"ﾅｶﾞｵｶ","address":"長岡市緑町","lat":"37.45","lng":"138.8233333"},{"id":"54506","name":"栃尾","kana":"ﾄﾁｵ","address":"長岡市栃尾大町","lat":"37.475","lng":"138.9916667"},{"id":"54541","name":"柏崎","kana":"ｶｼﾜｻﾞｷ","address":"柏崎市元城町","lat":"37.35166667","lng":"138.5533333"},{"id":"54566","name":"守門","kana":"ｽﾓﾝ","address":"魚沼市西名","lat":"37.34666667","lng":"139.0433333"},{"id":"54586","name":"大潟","kana":"ｵｵｶﾞﾀ","address":"上越市大潟区土底浜","lat":"37.225","lng":"138.325"},{"id":"54606","name":"小国","kana":"ｵｸﾞﾆ","address":"長岡市小国町新町","lat":"37.29166667","lng":"138.7016667"},{"id":"54616","name":"小出","kana":"ｺｲﾃﾞ","address":"魚沼市佐梨","lat":"37.22666667","lng":"138.9633333"},{"id":"54621","name":"大湯","kana":"ｵｵﾕ","address":"魚沼市下折立","lat":"37.205","lng":"139.0616667"},{"id":"54651","name":"高田","kana":"ﾀｶﾀﾞ","address":"上越市大手町　高田特別地域気象観測所","lat":"37.10666667","lng":"138.2466667"},{"id":"54661","name":"安塚","kana":"ﾔｽﾂﾞｶ","address":"上越市安塚区和田","lat":"37.10666667","lng":"138.4566667"},{"id":"54666","name":"川谷","kana":"ｶﾜﾀﾞﾆ","address":"上越市吉川区川谷字宮田","lat":"37.2","lng":"138.5166667"},{"id":"54671","name":"松代","kana":"ﾏﾂﾀﾞｲ","address":"十日町市松代","lat":"37.13166667","lng":"138.6066667"},{"id":"54676","name":"十日町","kana":"ﾄｵｶﾏﾁ","address":"十日町市小泉字北原","lat":"37.14333333","lng":"138.7266667"},{"id":"54711","name":"糸魚川","kana":"ｲﾄｲｶﾞﾜ","address":"糸魚川市東寺町","lat":"37.04333333","lng":"137.875"},{"id":"54721","name":"能生","kana":"ﾉｳ","address":"糸魚川市大字平","lat":"37.08333333","lng":"138.0233333"},{"id":"54737","name":"筒方","kana":"ﾄﾞｳｶﾞﾀ","address":"上越市板倉区筒方","lat":"37.03","lng":"138.3433333"},{"id":"54761","name":"塩沢","kana":"ｼｵｻﾞﾜ","address":"南魚沼市塩沢","lat":"37.03833333","lng":"138.8466667"},{"id":"54816","name":"関山","kana":"ｾｷﾔﾏ","address":"妙高市大字関山字原田","lat":"36.93333333","lng":"138.2216667"},{"id":"54836","name":"津南","kana":"ﾂﾅﾝ","address":"中魚沼郡津南町中深見乙","lat":"36.99666667","lng":"138.6833333"},{"id":"54841","name":"湯沢","kana":"ﾕｻﾞﾜ","address":"南魚沼郡湯沢町湯沢字中島川原","lat":"36.94166667","lng":"138.81"},{"id":"54876","name":"平岩","kana":"ﾋﾗｲﾜ","address":"糸魚川市大所","lat":"36.88","lng":"137.8666667"},{"id":"54892","name":"樽本","kana":"ﾀﾙﾓﾄ","address":"妙高市大字樽本乙","lat":"36.89","lng":"138.275"},{"id":"55022","name":"朝日","kana":"ｱｻﾋ","address":"下新川郡朝日町南保町","lat":"36.93666667","lng":"137.5633333"},{"id":"55041","name":"氷見","kana":"ﾋﾐ","address":"氷見市大浦","lat":"36.825","lng":"136.9683333"},{"id":"55056","name":"魚津","kana":"ｳｵﾂﾞ","address":"魚津市六郎丸","lat":"36.82166667","lng":"137.4283333"},{"id":"55063","name":"宇奈月","kana":"ｳﾅﾂﾞｷ","address":"黒部市宇奈月町内山","lat":"36.84666667","lng":"137.5566667"},{"id":"55091","name":"伏木","kana":"ﾌｼｷ","address":"高岡市伏木古国府　伏木特別地域気象観測所","lat":"36.79166667","lng":"137.055"},{"id":"55102","name":"富山","kana":"ﾄﾔﾏ","address":"富山市石坂　富山地方気象台","lat":"36.70833333","lng":"137.2016667"},{"id":"55141","name":"砺波","kana":"ﾄﾅﾐ","address":"砺波市五郎丸","lat":"36.61","lng":"136.955"},{"id":"55151","name":"秋ヶ島","kana":"ｱｷｶﾞｼﾏ","address":"富山市秋ヶ島　富山航空気象観測所","lat":"36.64833333","lng":"137.1866667"},{"id":"55156","name":"大山","kana":"ｵｵﾔﾏ","address":"富山市花崎","lat":"36.60833333","lng":"137.2833333"},{"id":"55166","name":"上市","kana":"ｶﾐｲﾁ","address":"中新川郡上市町東種","lat":"36.67","lng":"137.4233333"},{"id":"55191","name":"南砺高宮","kana":"ﾅﾝﾄﾀｶﾐﾔ","address":"南砺市高宮","lat":"36.545","lng":"136.8716667"},{"id":"55206","name":"八尾","kana":"ﾔﾂｵ","address":"富山市八尾町樫尾","lat":"36.57","lng":"137.1583333"},{"id":"55217","name":"立山芦峅","kana":"ﾀﾃﾔﾏｱｼｸﾗ","address":"中新川郡立山町芦峅寺","lat":"36.57666667","lng":"137.385"},{"id":"55252","name":"五箇山","kana":"ｺﾞｶﾔﾏ","address":"南砺市下梨中の平","lat":"36.43","lng":"136.9416667"},{"id":"55267","name":"猪谷","kana":"ｲﾉﾀﾆ","address":"富山市猪谷","lat":"36.47333333","lng":"137.2366667"},{"id":"56036","name":"珠洲","kana":"ｽｽﾞ","address":"珠洲市正院町正院","lat":"37.44666667","lng":"137.2866667"},{"id":"56052","name":"輪島","kana":"ﾜｼﾞﾏ","address":"輪島市鳳至町畠田　輪島特別地域気象観測所","lat":"37.39","lng":"136.895"},{"id":"56081","name":"門前","kana":"ﾓﾝｾﾞﾝ","address":"輪島市門前町北川","lat":"37.26166667","lng":"136.7283333"},{"id":"56093","name":"三井","kana":"ﾐｲ","address":"輪島市三井町洲衛　能登航空気象観測所","lat":"37.29333333","lng":"136.9616667"},{"id":"56116","name":"志賀","kana":"ｼｶ","address":"羽咋郡志賀町富来領家町甲","lat":"37.14333333","lng":"136.725"},{"id":"56146","name":"七尾","kana":"ﾅﾅｵ","address":"七尾市万行町43の部","lat":"37.03","lng":"136.9916667"},{"id":"56176","name":"羽咋","kana":"ﾊｸｲ","address":"羽咋市旭町","lat":"36.89333333","lng":"136.7766667"},{"id":"56186","name":"かほく","kana":"ｶﾎｸ","address":"かほく市内日角井","lat":"36.71166667","lng":"136.6916667"},{"id":"56192","name":"宝達志水","kana":"ﾎｳﾀﾞﾂｼﾐｽﾞ","address":"羽咋郡宝達志水町坪山","lat":"36.78833333","lng":"136.7683333"},{"id":"56227","name":"金沢","kana":"ｶﾅｻﾞﾜ","address":"金沢市西念　金沢地方気象台","lat":"36.58833333","lng":"136.6333333"},{"id":"56232","name":"医王山","kana":"ｲｵｳｾﾞﾝ","address":"金沢市平等本町","lat":"36.52","lng":"136.745"},{"id":"56276","name":"小松","kana":"ｺﾏﾂ","address":"小松市今江町","lat":"36.38166667","lng":"136.435"},{"id":"56286","name":"白山河内","kana":"ﾊｸｻﾝｶﾜﾁ","address":"白山市河内町福岡","lat":"36.39666667","lng":"136.62"},{"id":"56301","name":"加賀中津原","kana":"ｶｶﾞﾅｶﾂﾊﾗ","address":"加賀市山中温泉中津原町","lat":"36.26166667","lng":"136.3966667"},{"id":"56346","name":"白山白峰","kana":"ﾊｸｻﾝｼﾗﾐﾈ","address":"白山市白峰","lat":"36.18","lng":"136.625"},{"id":"56401","name":"舳倉島","kana":"ﾍｸﾞﾗｼﾞﾏ","address":"輪島市海士町所属舳倉島高見","lat":"37.85","lng":"136.9183333"},{"id":"57001","name":"三国","kana":"ﾐｸﾆ","address":"坂井市三国町平山","lat":"36.24333333","lng":"136.1733333"},{"id":"57026","name":"春江","kana":"ﾊﾙｴ","address":"坂井市春江町江留中　福井航空気象観測所","lat":"36.14166667","lng":"136.2233333"},{"id":"57051","name":"越廼","kana":"ｺｼﾉ","address":"福井市居倉町","lat":"36.01166667","lng":"135.99"},{"id":"57066","name":"福井","kana":"ﾌｸｲ","address":"福井市豊島　福井地方気象台","lat":"36.055","lng":"136.2216667"},{"id":"57071","name":"美山","kana":"ﾐﾔﾏ","address":"福井市美山町","lat":"35.99833333","lng":"136.3583333"},{"id":"57082","name":"勝山","kana":"ｶﾂﾔﾏ","address":"勝山市平泉寺町平泉寺86字岡道北","lat":"36.03833333","lng":"136.5216667"},{"id":"57106","name":"武生","kana":"ﾀｹﾌ","address":"越前市村国","lat":"35.905","lng":"136.1733333"},{"id":"57121","name":"大野","kana":"ｵｵﾉ","address":"大野市93字蛇塚四","lat":"35.97166667","lng":"136.4966667"},{"id":"57176","name":"九頭竜","kana":"ｸｽﾞﾘｭｳ","address":"大野市貝皿","lat":"35.90833333","lng":"136.6683333"},{"id":"57206","name":"今庄","kana":"ｲﾏｼﾞｮｳ","address":"南条郡南越前町今庄","lat":"35.76666667","lng":"136.2"},{"id":"57248","name":"敦賀","kana":"ﾂﾙｶﾞ","address":"敦賀市松栄町　敦賀特別地域気象観測所","lat":"35.65333333","lng":"136.0616667"},{"id":"57286","name":"美浜","kana":"ﾐﾊﾏ","address":"三方郡美浜町久々子","lat":"35.6","lng":"135.9166667"},{"id":"57311","name":"大飯","kana":"ｵｵｲ","address":"大飯郡おおい町本郷","lat":"35.48","lng":"135.6166667"},{"id":"57317","name":"小浜","kana":"ｵﾊﾞﾏ","address":"小浜市遠敷","lat":"35.48333333","lng":"135.7816667"},{"id":"60026","name":"柳ケ瀬","kana":"ﾔﾅｶﾞｾ","address":"長浜市余呉町柳ケ瀬字大門","lat":"35.58166667","lng":"136.1883333"},{"id":"60051","name":"今津","kana":"ｲﾏﾂﾞ","address":"高島市今津町弘川","lat":"35.41166667","lng":"136.0283333"},{"id":"60061","name":"長浜","kana":"ﾅｶﾞﾊﾏ","address":"長浜市唐国町","lat":"35.42333333","lng":"136.2416667"},{"id":"60081","name":"朽木平良","kana":"ｸﾂｷﾍﾗ","address":"高島市朽木平良","lat":"35.30833333","lng":"135.83"},{"id":"60102","name":"米原","kana":"ﾏｲﾊﾞﾗ","address":"米原市朝日","lat":"35.38333333","lng":"136.3433333"},{"id":"60116","name":"南小松","kana":"ﾐﾅﾐｺﾏﾂ","address":"大津市南小松","lat":"35.235","lng":"135.9566667"},{"id":"60131","name":"彦根","kana":"ﾋｺﾈ","address":"彦根市城町　彦根地方気象台","lat":"35.275","lng":"136.2433333"},{"id":"60161","name":"近江八幡","kana":"ｵｳﾐﾊﾁﾏﾝ","address":"近江八幡市土田町","lat":"35.12666667","lng":"136.0916667"},{"id":"60196","name":"東近江","kana":"ﾋｶﾞｼｵｳﾐ","address":"東近江市桜川東町","lat":"35.06166667","lng":"136.19"},{"id":"60216","name":"大津","kana":"ｵｵﾂ","address":"大津市萱野浦","lat":"34.99166667","lng":"135.9116667"},{"id":"60226","name":"信楽","kana":"ｼｶﾞﾗｷ","address":"甲賀市信楽町牧","lat":"34.91333333","lng":"136.08"},{"id":"60236","name":"土山","kana":"ﾂﾁﾔﾏ","address":"甲賀市土山町北土山","lat":"34.93833333","lng":"136.2783333"},{"id":"61001","name":"間人","kana":"ﾀｲｻﾞ","address":"京丹後市丹後町間人小字新ヶ皿","lat":"35.73666667","lng":"135.0866667"},{"id":"61031","name":"峰山","kana":"ﾐﾈﾔﾏ","address":"京丹後市峰山町荒山","lat":"35.61833333","lng":"135.0716667"},{"id":"61076","name":"宮津","kana":"ﾐﾔﾂﾞ","address":"宮津市字上司","lat":"35.55","lng":"135.235"},{"id":"61096","name":"坂浦","kana":"ｻｶｳﾗ","address":"福知山市下野条","lat":"35.41833333","lng":"135.0866667"},{"id":"61111","name":"舞鶴","kana":"ﾏｲﾂﾞﾙ","address":"舞鶴市字下福井　舞鶴特別地域気象観測所","lat":"35.45","lng":"135.3166667"},{"id":"61151","name":"睦寄","kana":"ﾑﾂﾖﾘ","address":"綾部市睦寄町狸岩","lat":"35.38166667","lng":"135.4533333"},{"id":"61187","name":"福知山","kana":"ﾌｸﾁﾔﾏ","address":"福知山市字荒河","lat":"35.31166667","lng":"135.1133333"},{"id":"61192","name":"三和","kana":"ﾐﾜ","address":"福知山市三和町千束","lat":"35.21666667","lng":"135.2316667"},{"id":"61196","name":"綾部山家","kana":"ｱﾔﾍﾞﾔﾏｶﾞ","address":"綾部市東山町山家","lat":"35.29666667","lng":"135.315"},{"id":"61201","name":"本庄","kana":"ﾎﾝｼﾞｮｳ","address":"船井郡京丹波町本庄西畑","lat":"35.26","lng":"135.395"},{"id":"61206","name":"美山","kana":"ﾐﾔﾏ","address":"南丹市美山町静原桧野","lat":"35.275","lng":"135.55"},{"id":"61241","name":"須知","kana":"ｼｭｳﾁ","address":"船井郡京丹波町富田蒲生野","lat":"35.17666667","lng":"135.42"},{"id":"61242","name":"園部","kana":"ｿﾉﾍﾞ","address":"南丹市園部町黒田","lat":"35.10833333","lng":"135.455"},{"id":"61251","name":"京北","kana":"ｹｲﾎｸ","address":"京都市右京区京北比賀江町院谷","lat":"35.18166667","lng":"135.6616667"},{"id":"61286","name":"京都","kana":"ｷｮｳﾄ","address":"京都市中京区西ノ京笠殿町　京都地方気象台","lat":"35.01333333","lng":"135.7316667"},{"id":"61306","name":"長岡京","kana":"ﾅｶﾞｵｶｷｮｳ","address":"長岡京市光風台","lat":"34.93","lng":"135.6783333"},{"id":"61326","name":"京田辺","kana":"ｷｮｳﾀﾅﾍﾞ","address":"京田辺市薪西浜","lat":"34.83","lng":"135.76"},{"id":"62016","name":"能勢","kana":"ﾉｾ","address":"豊能郡能勢町地黄","lat":"34.94833333","lng":"135.455"},{"id":"62037","name":"茨木","kana":"ｲﾊﾞﾗｷ","address":"茨木市大字桑原","lat":"34.86","lng":"135.56"},{"id":"62046","name":"枚方","kana":"ﾋﾗｶﾀ","address":"枚方市星丘","lat":"34.80833333","lng":"135.6716667"},{"id":"62051","name":"豊中","kana":"ﾄﾖﾅｶ","address":"豊中市蛍池西町　大阪航空気象観測所","lat":"34.78333333","lng":"135.4383333"},{"id":"62078","name":"大阪","kana":"ｵｵｻｶ","address":"大阪市中央区大手前　大阪管区気象台","lat":"34.68166667","lng":"135.5183333"},{"id":"62081","name":"生駒山","kana":"ｲｺﾏﾔﾏ","address":"東大阪市山手町","lat":"34.675","lng":"135.6766667"},{"id":"62091","name":"堺","kana":"ｻｶｲ","address":"堺市堺区百舌鳥夕雲町","lat":"34.555","lng":"135.485"},{"id":"62096","name":"八尾","kana":"ﾔｵ","address":"八尾市空港　八尾航空気象観測所","lat":"34.59666667","lng":"135.6"},{"id":"62101","name":"関空島","kana":"ｶﾝｸｳｼﾞﾏ","address":"泉南郡田尻町泉州空港中　関西航空地方気象台","lat":"34.43333333","lng":"135.2316667"},{"id":"62111","name":"河内長野","kana":"ｶﾜﾁﾅｶﾞﾉ","address":"河内長野市日野","lat":"34.42333333","lng":"135.5433333"},{"id":"62131","name":"熊取","kana":"ｸﾏﾄﾘ","address":"泉南郡熊取町朝代西","lat":"34.385","lng":"135.35"},{"id":"63016","name":"香住","kana":"ｶｽﾐ","address":"美方郡香美町香住区森","lat":"35.625","lng":"134.6266667"},{"id":"63032","name":"温泉","kana":"ｵﾝｾﾝ","address":"美方郡新温泉町桐岡字穴町","lat":"35.52833333","lng":"134.48"},{"id":"63051","name":"豊岡","kana":"ﾄﾖｵｶ","address":"豊岡市桜町　豊岡特別地域気象観測所","lat":"35.535","lng":"134.8216667"},{"id":"63071","name":"兎和野高原","kana":"ｳﾜﾉｺｳｹﾞﾝ","address":"美方郡香美町村岡区宿字菟臥野","lat":"35.43166667","lng":"134.5833333"},{"id":"63111","name":"大屋","kana":"ｵｵﾔ","address":"養父市大屋町山路","lat":"35.33166667","lng":"134.665"},{"id":"63116","name":"八鹿","kana":"ﾖｳｶ","address":"養父市八鹿町高柳字篠尾","lat":"35.39833333","lng":"134.74"},{"id":"63121","name":"和田山","kana":"ﾜﾀﾞﾔﾏ","address":"朝来市和田山町枚田","lat":"35.32333333","lng":"134.8483333"},{"id":"63201","name":"生野","kana":"ｲｸﾉ","address":"朝来市生野町口銀谷","lat":"35.16666667","lng":"134.7916667"},{"id":"63216","name":"柏原","kana":"ｶｲﾊﾞﾗ","address":"丹波市柏原町柏原","lat":"35.13666667","lng":"135.065"},{"id":"63241","name":"佐用","kana":"ｻﾖｳ","address":"佐用郡佐用町円応寺","lat":"35.01666667","lng":"134.3683333"},{"id":"63251","name":"一宮","kana":"ｲﾁﾉﾐﾔ","address":"宍粟市一宮町東市場","lat":"35.09666667","lng":"134.585"},{"id":"63321","name":"福崎","kana":"ﾌｸｻｷ","address":"神崎郡福崎町福崎新","lat":"34.95","lng":"134.7483333"},{"id":"63331","name":"西脇","kana":"ﾆｼﾜｷ","address":"西脇市上比延町","lat":"34.99833333","lng":"134.9966667"},{"id":"63346","name":"後川","kana":"ｼﾂｶﾜ","address":"丹波篠山市後川上","lat":"35.025","lng":"135.2933333"},{"id":"63366","name":"上郡","kana":"ｶﾐｺﾞｵﾘ","address":"赤穂郡上郡町与井","lat":"34.85833333","lng":"134.3733333"},{"id":"63383","name":"姫路","kana":"ﾋﾒｼﾞ","address":"姫路市神子岡前　姫路特別地域気象観測所","lat":"34.83833333","lng":"134.67"},{"id":"63411","name":"三田","kana":"ｻﾝﾀﾞ","address":"三田市下深田","lat":"34.895","lng":"135.2116667"},{"id":"63461","name":"三木","kana":"ﾐｷ","address":"三木市志染町広野","lat":"34.77666667","lng":"135.0133333"},{"id":"63477","name":"西宮","kana":"ﾆｼﾉﾐﾔ","address":"西宮市奥畑","lat":"34.75","lng":"135.335"},{"id":"63491","name":"家島","kana":"ｲｴｼﾏ","address":"姫路市家島町真浦字御室寺","lat":"34.67166667","lng":"134.5266667"},{"id":"63496","name":"明石","kana":"ｱｶｼ","address":"明石市二見町南二見","lat":"34.68666667","lng":"134.8766667"},{"id":"63517","name":"神戸空港","kana":"ｺｳﾍﾞｸｳｺｳ","address":"神戸市中央区神戸空港　神戸航空気象観測所","lat":"34.63166667","lng":"135.2233333"},{"id":"63518","name":"神戸","kana":"ｺｳﾍﾞ","address":"神戸市中央区脇浜海岸通　神戸地方気象台","lat":"34.69666667","lng":"135.2116667"},{"id":"63551","name":"郡家","kana":"ｸﾞﾝｹﾞ","address":"淡路市多賀","lat":"34.46666667","lng":"134.8483333"},{"id":"63571","name":"洲本","kana":"ｽﾓﾄ","address":"洲本市木戸　洲本特別地域気象観測所","lat":"34.31","lng":"134.8483333"},{"id":"63588","name":"南淡","kana":"ﾅﾝﾀﾞﾝ","address":"南あわじ市阿万塩屋町","lat":"34.21833333","lng":"134.72"},{"id":"64036","name":"奈良","kana":"ﾅﾗ","address":"奈良市東紀寺町　奈良地方気象台","lat":"34.67333333","lng":"135.8366667"},{"id":"64041","name":"針","kana":"ﾊﾘ","address":"奈良市都祁友田町","lat":"34.605","lng":"135.9516667"},{"id":"64056","name":"田原本","kana":"ﾀﾜﾗﾓﾄ","address":"磯城郡田原本町","lat":"34.555","lng":"135.785"},{"id":"64076","name":"曽爾","kana":"ｿﾆ","address":"宇陀郡曽爾村太良路","lat":"34.52166667","lng":"136.1583333"},{"id":"64091","name":"葛城","kana":"ｶﾂﾗｷﾞ","address":"葛城市寺口","lat":"34.48833333","lng":"135.7033333"},{"id":"64101","name":"大宇陀","kana":"ｵｵｳﾀﾞ","address":"宇陀市大宇陀下竹","lat":"34.48833333","lng":"135.9316667"},{"id":"64127","name":"五條","kana":"ｺﾞｼﾞｮｳ","address":"五條市三在町","lat":"34.38","lng":"135.73"},{"id":"64136","name":"吉野","kana":"ﾖｼﾉ","address":"吉野郡吉野町宮滝","lat":"34.37833333","lng":"135.9"},{"id":"64161","name":"天川","kana":"ﾃﾝｶﾜ","address":"吉野郡天川村大字洞川","lat":"34.27","lng":"135.8833333"},{"id":"64206","name":"上北山","kana":"ｶﾐｷﾀﾔﾏ","address":"吉野郡上北山村小橡","lat":"34.13666667","lng":"136.005"},{"id":"64227","name":"風屋","kana":"ｶｾﾞﾔ","address":"吉野郡十津川村風屋","lat":"34.045","lng":"135.7866667"},{"id":"64236","name":"下北山","kana":"ｼﾓｷﾀﾔﾏ","address":"吉野郡下北山村佐田","lat":"34.00333333","lng":"135.9666667"},{"id":"64262","name":"葛川","kana":"ｸｽﾞｶﾜ","address":"吉野郡十津川村大字東中","lat":"33.95333333","lng":"135.8566667"},{"id":"65021","name":"葛城山","kana":"ｶﾂﾗｷﾞｻﾝ","address":"紀の川市切畑","lat":"34.34666667","lng":"135.4366667"},{"id":"65026","name":"かつらぎ","kana":"ｶﾂﾗｷﾞ","address":"伊都郡かつらぎ町妙寺","lat":"34.31","lng":"135.5283333"},{"id":"65036","name":"友ケ島","kana":"ﾄﾓｶﾞｼﾏ","address":"和歌山市加太苫ケ沖島","lat":"34.28","lng":"134.9983333"},{"id":"65042","name":"和歌山","kana":"ﾜｶﾔﾏ","address":"和歌山市男野芝丁　和歌山地方気象台","lat":"34.22833333","lng":"135.1633333"},{"id":"65061","name":"高野山","kana":"ｺｳﾔｻﾝ","address":"伊都郡高野町高野山","lat":"34.22166667","lng":"135.59"},{"id":"65106","name":"湯浅","kana":"ﾕｱｻ","address":"有田郡湯浅町湯浅","lat":"34.035","lng":"135.1816667"},{"id":"65121","name":"清水","kana":"ｼﾐｽﾞ","address":"有田郡有田川町清水","lat":"34.08666667","lng":"135.425"},{"id":"65127","name":"護摩壇山","kana":"ｺﾞﾏﾀﾞﾝｻﾞﾝ","address":"田辺市龍神村龍神","lat":"34.04","lng":"135.5666667"},{"id":"65162","name":"龍神","kana":"ﾘｭｳｼﾞﾝ","address":"田辺市龍神村湯ノ又","lat":"33.945","lng":"135.5566667"},{"id":"65201","name":"川辺","kana":"ｶﾜﾍﾞ","address":"日高郡日高川町和佐","lat":"33.89333333","lng":"135.2166667"},{"id":"65226","name":"本宮","kana":"ﾎﾝｸﾞｳ","address":"田辺市本宮町本宮","lat":"33.83666667","lng":"135.7733333"},{"id":"65256","name":"栗栖川","kana":"ｸﾘｽｶﾞﾜ","address":"田辺市中辺路町栗栖川","lat":"33.79166667","lng":"135.5133333"},{"id":"65276","name":"新宮","kana":"ｼﾝｸﾞｳ","address":"新宮市佐野","lat":"33.68666667","lng":"135.97"},{"id":"65288","name":"南紀白浜","kana":"ﾅﾝｷｼﾗﾊﾏ","address":"西牟婁郡白浜町　南紀白浜航空気象観測所","lat":"33.66166667","lng":"135.3633333"},{"id":"65306","name":"西川","kana":"ﾆｼｶﾜ","address":"東牟婁郡古座川町西川","lat":"33.63833333","lng":"135.71"},{"id":"65311","name":"色川","kana":"ｲﾛｶﾜ","address":"東牟婁郡那智勝浦町大野","lat":"33.675","lng":"135.8483333"},{"id":"65321","name":"日置川","kana":"ﾋｷｶﾞﾜ","address":"西牟婁郡白浜町安居","lat":"33.605","lng":"135.48"},{"id":"65356","name":"潮岬","kana":"ｼｵﾉﾐｻｷ","address":"東牟婁郡串本町潮岬　潮岬特別地域気象観測所","lat":"33.45","lng":"135.7566667"},{"id":"66046","name":"上長田","kana":"ｶﾐﾅｶﾞﾀ","address":"真庭市蒜山上長田","lat":"35.29666667","lng":"133.725"},{"id":"66056","name":"恩原","kana":"ｵﾝﾊﾞﾗ","address":"苫田郡鏡野町上斎原","lat":"35.3","lng":"133.9866667"},{"id":"66091","name":"千屋","kana":"ﾁﾔ","address":"新見市千屋","lat":"35.10333333","lng":"133.435"},{"id":"66112","name":"富","kana":"ﾄﾐ","address":"苫田郡鏡野町富西谷","lat":"35.17833333","lng":"133.805"},{"id":"66127","name":"奈義","kana":"ﾅｷﾞ","address":"勝田郡奈義町荒内西字大池","lat":"35.11166667","lng":"134.17"},{"id":"66136","name":"今岡","kana":"ｲﾏｵｶ","address":"美作市今岡","lat":"35.09833333","lng":"134.325"},{"id":"66171","name":"久世","kana":"ｸｾ","address":"真庭市中島","lat":"35.06833333","lng":"133.7533333"},{"id":"66186","name":"津山","kana":"ﾂﾔﾏ","address":"津山市林田　津山特別地域気象観測所","lat":"35.06333333","lng":"134.0083333"},{"id":"66221","name":"新見","kana":"ﾆｲﾐ","address":"新見市足見堂の下","lat":"34.94333333","lng":"133.5183333"},{"id":"66226","name":"下呰部","kana":"ｼﾓｱｻﾞｴ","address":"真庭市下呰部","lat":"34.965","lng":"133.6283333"},{"id":"66237","name":"旭西","kana":"ｱｻﾋﾆｼ","address":"久米郡美咲町西","lat":"34.96166667","lng":"133.8116667"},{"id":"66251","name":"赤磐","kana":"ｱｶｲﾜ","address":"赤磐市黒本","lat":"34.91833333","lng":"134.0816667"},{"id":"66276","name":"陣山","kana":"ｼﾞﾝﾔﾏ","address":"高梁市松原町字松岡陣山","lat":"34.82833333","lng":"133.5233333"},{"id":"66287","name":"吉備中央","kana":"ｷﾋﾞﾁｭｳｵｳ","address":"加賀郡吉備中央町北","lat":"34.81666667","lng":"133.705"},{"id":"66296","name":"福渡","kana":"ﾌｸﾜﾀﾘ","address":"岡山市北区建部町福渡","lat":"34.86666667","lng":"133.9033333"},{"id":"66306","name":"和気","kana":"ﾜｹ","address":"和気郡和気町吉田","lat":"34.815","lng":"134.1833333"},{"id":"66336","name":"高梁","kana":"ﾀｶﾊｼ","address":"高梁市落合町近似","lat":"34.79166667","lng":"133.61"},{"id":"66346","name":"日応寺","kana":"ﾆﾁｵｳｼﾞ","address":"岡山市北区日応寺　岡山航空気象観測所","lat":"34.75666667","lng":"133.855"},{"id":"66381","name":"佐屋","kana":"ｻﾔ","address":"井原市芳井町佐屋","lat":"34.685","lng":"133.445"},{"id":"66391","name":"矢掛","kana":"ﾔｶｹﾞ","address":"小田郡矢掛町東三成","lat":"34.61666667","lng":"133.6183333"},{"id":"66408","name":"岡山","kana":"ｵｶﾔﾏ","address":"岡山市北区津島中　岡山地方気象台","lat":"34.685","lng":"133.925"},{"id":"66421","name":"虫明","kana":"ﾑｼｱｹﾞ","address":"瀬戸内市邑久町虫明","lat":"34.68166667","lng":"134.2066667"},{"id":"66446","name":"倉敷","kana":"ｸﾗｼｷ","address":"倉敷市中央","lat":"34.59","lng":"133.7683333"},{"id":"66481","name":"笠岡","kana":"ｶｻｵｶ","address":"笠岡市カブト東町","lat":"34.50166667","lng":"133.495"},{"id":"66501","name":"玉野","kana":"ﾀﾏﾉ","address":"玉野市宇野","lat":"34.48666667","lng":"133.95"},{"id":"67016","name":"高野","kana":"ﾀｶﾉ","address":"庄原市高野町新市","lat":"35.03333333","lng":"132.9016667"},{"id":"67026","name":"道後山","kana":"ﾄﾞｳｺﾞﾔﾏ","address":"庄原市西城町三坂","lat":"35.05666667","lng":"133.1883333"},{"id":"67052","name":"君田","kana":"ｷﾐﾀ","address":"三次市君田町櫃田字市井谷","lat":"34.92833333","lng":"132.83"},{"id":"67106","name":"三次","kana":"ﾐﾖｼ","address":"三次市三次町","lat":"34.81166667","lng":"132.85"},{"id":"67116","name":"庄原","kana":"ｼｮｳﾊﾞﾗ","address":"庄原市東本町","lat":"34.86","lng":"133.0233333"},{"id":"67126","name":"東城","kana":"ﾄｳｼﾞｮｳ","address":"庄原市東城町川東","lat":"34.895","lng":"133.2766667"},{"id":"67136","name":"八幡","kana":"ﾔﾜﾀ","address":"山県郡北広島町東八幡原","lat":"34.70833333","lng":"132.1733333"},{"id":"67151","name":"大朝","kana":"ｵｵｱｻ","address":"山県郡北広島町大朝字大坪","lat":"34.76833333","lng":"132.4633333"},{"id":"67161","name":"美土里","kana":"ﾐﾄﾞﾘ","address":"安芸高田市美土里町横田","lat":"34.72166667","lng":"132.655"},{"id":"67191","name":"油木","kana":"ﾕｷ","address":"神石郡神石高原町安田伊ノ平谷","lat":"34.76333333","lng":"133.2783333"},{"id":"67211","name":"王泊","kana":"ｵｵﾄﾞﾏﾘ","address":"山県郡北広島町細見","lat":"34.69833333","lng":"132.3116667"},{"id":"67212","name":"加計","kana":"ｶｹ","address":"山県郡安芸太田町加計字神田","lat":"34.61","lng":"132.32"},{"id":"67217","name":"都志見","kana":"ﾂｼﾐ","address":"山県郡北広島町都志見","lat":"34.64666667","lng":"132.4433333"},{"id":"67231","name":"甲田","kana":"ｺｳﾀﾞ","address":"安芸高田市甲田町高田原","lat":"34.695","lng":"132.76"},{"id":"67251","name":"上下","kana":"ｼﾞｮｳｹﾞ","address":"府中市上下町上下","lat":"34.69333333","lng":"133.1166667"},{"id":"67271","name":"内黒山","kana":"ｳﾁｸﾞﾛﾔﾏ","address":"山県郡安芸太田町大字横川字横川東平","lat":"34.59666667","lng":"132.1766667"},{"id":"67292","name":"三入","kana":"ﾐｲﾘ","address":"広島市安佐北区三入","lat":"34.545","lng":"132.53"},{"id":"67306","name":"安宿","kana":"ｱｽｶ","address":"東広島市豊栄町安宿","lat":"34.56666667","lng":"132.8383333"},{"id":"67316","name":"世羅","kana":"ｾﾗ","address":"世羅郡世羅町大字東神崎字大田","lat":"34.58333333","lng":"133.05"},{"id":"67326","name":"府中","kana":"ﾌﾁｭｳ","address":"府中市土生町","lat":"34.56166667","lng":"133.2316667"},{"id":"67351","name":"佐伯湯来","kana":"ｻｴｷﾕｷ","address":"広島市佐伯区湯来町大字和田字中須賀","lat":"34.49833333","lng":"132.29"},{"id":"67371","name":"志和","kana":"ｼﾜ","address":"東広島市志和町志和堀","lat":"34.49833333","lng":"132.66"},{"id":"67376","name":"東広島","kana":"ﾋｶﾞｼﾋﾛｼﾏ","address":"東広島市八本松町原","lat":"34.41666667","lng":"132.7"},{"id":"67386","name":"本郷","kana":"ﾎﾝｺﾞｳ","address":"三原市本郷町善入寺平岩　広島航空気象観測所","lat":"34.435","lng":"132.9183333"},{"id":"67401","name":"福山","kana":"ﾌｸﾔﾏ","address":"福山市松永町　福山特別地域気象観測所","lat":"34.44666667","lng":"133.2466667"},{"id":"67421","name":"廿日市津田","kana":"ﾊﾂｶｲﾁﾂﾀ","address":"廿日市市津田","lat":"34.365","lng":"132.19"},{"id":"67437","name":"広島","kana":"ﾋﾛｼﾏ","address":"広島市中区上八丁堀　広島地方気象台","lat":"34.39833333","lng":"132.4616667"},{"id":"67461","name":"竹原","kana":"ﾀｹﾊﾗ","address":"竹原市忠海床浦","lat":"34.33","lng":"132.9816667"},{"id":"67471","name":"生口島","kana":"ｲｸﾁｼﾞﾏ","address":"尾道市瀬戸田町御寺","lat":"34.27833333","lng":"133.1233333"},{"id":"67496","name":"大竹","kana":"ｵｵﾀｹ","address":"大竹市立戸","lat":"34.22166667","lng":"132.22"},{"id":"67511","name":"呉","kana":"ｸﾚ","address":"呉市宝町　呉特別地域気象観測所","lat":"34.24","lng":"132.55"},{"id":"67566","name":"倉橋","kana":"ｸﾗﾊｼ","address":"呉市倉橋町須川","lat":"34.09166667","lng":"132.4883333"},{"id":"67576","name":"呉市蒲刈","kana":"ｸﾚｼｶﾏｶﾞﾘ","address":"呉市蒲刈町大浦字前沖浦","lat":"34.165","lng":"132.7483333"},{"id":"68022","name":"西郷","kana":"ｻｲｺﾞｳ","address":"隠岐郡隠岐の島町西町大城ノ一　西郷特別地域気象観測所","lat":"36.20333333","lng":"133.3333333"},{"id":"68046","name":"西郷岬","kana":"ｻｲｺﾞｳﾐｻｷ","address":"隠岐郡隠岐の島町岬町　隠岐航空気象観測所","lat":"36.17833333","lng":"133.3233333"},{"id":"68056","name":"海士","kana":"ｱﾏ","address":"隠岐郡海士町海士","lat":"36.09666667","lng":"133.0966667"},{"id":"68091","name":"鹿島","kana":"ｶｼﾏ","address":"松江市鹿島町佐陀本郷","lat":"35.52","lng":"132.9833333"},{"id":"68121","name":"斐川","kana":"ﾋｶﾜ","address":"出雲市斐川町沖洲　出雲航空気象観測所","lat":"35.41333333","lng":"132.89"},{"id":"68132","name":"松江","kana":"ﾏﾂｴ","address":"松江市西津田　松江地方気象台","lat":"35.45666667","lng":"133.065"},{"id":"68156","name":"出雲","kana":"ｲｽﾞﾓ","address":"出雲市芦渡町","lat":"35.33166667","lng":"132.73"},{"id":"68166","name":"大東","kana":"ﾀﾞｲﾄｳ","address":"雲南市大東町下阿用","lat":"35.31833333","lng":"132.965"},{"id":"68181","name":"伯太","kana":"ﾊｸﾀ","address":"安来市伯太町西母里","lat":"35.35","lng":"133.2733333"},{"id":"68206","name":"佐田","kana":"ｻﾀﾞ","address":"出雲市佐田町大呂","lat":"35.22166667","lng":"132.7233333"},{"id":"68246","name":"大田","kana":"ｵｵﾀﾞ","address":"大田市大田町大田","lat":"35.19","lng":"132.4966667"},{"id":"68261","name":"掛合","kana":"ｶｹﾔ","address":"雲南市掛合町掛合","lat":"35.19666667","lng":"132.815"},{"id":"68276","name":"横田","kana":"ﾖｺﾀ","address":"仁多郡奥出雲町稲原","lat":"35.17333333","lng":"133.1033333"},{"id":"68286","name":"福光","kana":"ﾌｸﾐﾂ","address":"大田市温泉津町福光","lat":"35.07","lng":"132.3333333"},{"id":"68306","name":"赤名","kana":"ｱｶﾅ","address":"飯石郡飯南町下赤名","lat":"35.00166667","lng":"132.7116667"},{"id":"68346","name":"桜江","kana":"ｻｸﾗｴ","address":"江津市桜江町川戸","lat":"34.95333333","lng":"132.3333333"},{"id":"68351","name":"川本","kana":"ｶﾜﾓﾄ","address":"邑智郡川本町川本","lat":"34.97666667","lng":"132.4916667"},{"id":"68376","name":"浜田","kana":"ﾊﾏﾀﾞ","address":"浜田市大辻町　浜田特別地域気象観測所","lat":"34.89666667","lng":"132.07"},{"id":"68401","name":"瑞穂","kana":"ﾐｽﾞﾎ","address":"邑智郡邑南町淀原","lat":"34.85333333","lng":"132.53"},{"id":"68421","name":"三隅","kana":"ﾐｽﾐ","address":"浜田市三隅町西河内","lat":"34.795","lng":"131.9483333"},{"id":"68431","name":"弥栄","kana":"ﾔｻｶ","address":"浜田市弥栄町長安本郷","lat":"34.77666667","lng":"132.1083333"},{"id":"68436","name":"波佐","kana":"ﾊｻﾞ","address":"浜田市金城町波佐","lat":"34.78","lng":"132.1966667"},{"id":"68456","name":"高津","kana":"ﾀｶﾂ","address":"益田市内田町　石見航空気象観測所","lat":"34.675","lng":"131.79"},{"id":"68462","name":"益田","kana":"ﾏｽﾀﾞ","address":"益田市あけぼの東町","lat":"34.67666667","lng":"131.8433333"},{"id":"68501","name":"匹見","kana":"ﾋｷﾐ","address":"益田市匹見町匹見","lat":"34.57166667","lng":"132.0166667"},{"id":"68516","name":"津和野","kana":"ﾂﾜﾉ","address":"鹿足郡津和野町森村ロ","lat":"34.46166667","lng":"131.77"},{"id":"68541","name":"吉賀","kana":"ﾖｼｶ","address":"鹿足郡吉賀町七日市","lat":"34.39166667","lng":"131.8933333"},{"id":"69006","name":"境","kana":"ｻｶｲ","address":"境港市東本町　境特別地域気象観測所","lat":"35.54333333","lng":"133.235"},{"id":"69021","name":"塩津","kana":"ｼｵﾂ","address":"西伯郡大山町塩津","lat":"35.52333333","lng":"133.5666667"},{"id":"69041","name":"青谷","kana":"ｱｵﾔ","address":"鳥取市青谷町青谷","lat":"35.52","lng":"133.9966667"},{"id":"69052","name":"湖山","kana":"ｺﾔﾏ","address":"鳥取市湖山町西　鳥取航空気象観測所","lat":"35.53","lng":"134.165"},{"id":"69061","name":"岩井","kana":"ｲﾜｲ","address":"岩美郡岩美町宇治字前田","lat":"35.55833333","lng":"134.36"},{"id":"69076","name":"米子","kana":"ﾖﾅｺﾞ","address":"米子市博労町　米子特別地域気象観測所","lat":"35.43333333","lng":"133.3383333"},{"id":"69101","name":"倉吉","kana":"ｸﾗﾖｼ","address":"倉吉市大塚字隈ヶ坪","lat":"35.47333333","lng":"133.8383333"},{"id":"69111","name":"鹿野","kana":"ｼｶﾉ","address":"鳥取市鹿野町河内","lat":"35.41333333","lng":"134.0166667"},{"id":"69122","name":"鳥取","kana":"ﾄｯﾄﾘ","address":"鳥取市吉方　鳥取地方気象台","lat":"35.48666667","lng":"134.2383333"},{"id":"69152","name":"大山","kana":"ﾀﾞｲｾﾝ","address":"西伯郡大山町大山字立の坂上","lat":"35.39333333","lng":"133.5366667"},{"id":"69161","name":"関金","kana":"ｾｷｶﾞﾈ","address":"倉吉市関金町安歩","lat":"35.37833333","lng":"133.7566667"},{"id":"69181","name":"佐治","kana":"ｻｼﾞ","address":"鳥取市佐治町加瀬木","lat":"35.32833333","lng":"134.1133333"},{"id":"69196","name":"若桜","kana":"ﾜｶｻ","address":"八頭郡若桜町大字大炊","lat":"35.33333333","lng":"134.405"},{"id":"69222","name":"江尾","kana":"ｴﾋﾞ","address":"日野郡江府町小江尾","lat":"35.28833333","lng":"133.4833333"},{"id":"69246","name":"智頭","kana":"ﾁｽﾞ","address":"八頭郡智頭町智頭沖代","lat":"35.26333333","lng":"134.24"},{"id":"69271","name":"茶屋","kana":"ﾁｬﾔ","address":"日野郡日南町茶屋大ジャフ田","lat":"35.18666667","lng":"133.23"},{"id":"71066","name":"池田","kana":"ｲｹﾀﾞ","address":"三好市池田町シンヤマ","lat":"34.02333333","lng":"133.795"},{"id":"71087","name":"穴吹","kana":"ｱﾅﾌﾞｷ","address":"美馬市穴吹町口山初草","lat":"34.04","lng":"134.1566667"},{"id":"71106","name":"徳島","kana":"ﾄｸｼﾏ","address":"徳島市大和町　徳島地方気象台","lat":"34.06666667","lng":"134.5733333"},{"id":"71136","name":"半田","kana":"ﾊﾝﾀﾞ","address":"美馬郡つるぎ町半田字下尾尻","lat":"33.99","lng":"134.0366667"},{"id":"71191","name":"京上","kana":"ｷｮｳｼﾞｮｳ","address":"三好市東祖谷京上","lat":"33.86666667","lng":"133.9033333"},{"id":"71211","name":"福原旭","kana":"ﾌｸﾊﾗｱｻﾋ","address":"勝浦郡上勝町大字旭字蔭","lat":"33.87833333","lng":"134.3883333"},{"id":"71231","name":"蒲生田","kana":"ｶﾓﾀﾞ","address":"阿南市椿町蒲生田","lat":"33.83666667","lng":"134.7416667"},{"id":"71251","name":"木頭","kana":"ｷﾄｳ","address":"那賀郡那賀町木頭和無田ヨシノ","lat":"33.77166667","lng":"134.1983333"},{"id":"71266","name":"日和佐","kana":"ﾋﾜｻ","address":"海部郡美波町日和佐浦","lat":"33.73166667","lng":"134.5383333"},{"id":"71291","name":"海陽","kana":"ｶｲﾖｳ","address":"海部郡海陽町四方原字杉谷","lat":"33.61166667","lng":"134.355"},{"id":"72061","name":"内海","kana":"ｳﾁﾉﾐ","address":"小豆郡小豆島町西村甲","lat":"34.47166667","lng":"134.2733333"},{"id":"72086","name":"高松","kana":"ﾀｶﾏﾂ","address":"高松市伏石町　高松地方気象台","lat":"34.31833333","lng":"134.0533333"},{"id":"72111","name":"多度津","kana":"ﾀﾄﾞﾂ","address":"仲多度郡多度津町家中　多度津特別地域気象観測所","lat":"34.275","lng":"133.7516667"},{"id":"72121","name":"滝宮","kana":"ﾀｷﾉﾐﾔ","address":"綾歌郡綾川町滝宮字山田","lat":"34.23666667","lng":"133.9233333"},{"id":"72126","name":"香南","kana":"ｺｳﾅﾝ","address":"高松市香南町由佐　高松航空気象観測所","lat":"34.21333333","lng":"134.015"},{"id":"72146","name":"引田","kana":"ﾋｹﾀ","address":"東かがわ市南野","lat":"34.21333333","lng":"134.4066667"},{"id":"72161","name":"財田","kana":"ｻｲﾀ","address":"三豊市財田町財田上","lat":"34.12","lng":"133.7716667"},{"id":"72176","name":"竜王山","kana":"ﾘｭｳｵｳｻﾞﾝ","address":"徳島県美馬市美馬町字入倉","lat":"34.11333333","lng":"134.05"},{"id":"73001","name":"大三島","kana":"ｵｵﾐｼﾏ","address":"今治市大三島町宮浦地先","lat":"34.25","lng":"133.0066667"},{"id":"73071","name":"玉川","kana":"ﾀﾏｶﾞﾜ","address":"今治市玉川町三反地甲","lat":"34.01833333","lng":"132.94"},{"id":"73076","name":"今治","kana":"ｲﾏﾊﾞﾘ","address":"今治市山路","lat":"34.05333333","lng":"132.975"},{"id":"73126","name":"西条","kana":"ｻｲｼﾞｮｳ","address":"西条市周布","lat":"33.915","lng":"133.08"},{"id":"73141","name":"新居浜","kana":"ﾆｲﾊﾏ","address":"新居浜市船木甲","lat":"33.93666667","lng":"133.3383333"},{"id":"73151","name":"四国中央","kana":"ｼｺｸﾁｭｳｵｳ","address":"四国中央市妻鳥町乙","lat":"33.98166667","lng":"133.5816667"},{"id":"73152","name":"富郷","kana":"ﾄﾐｻﾄ","address":"四国中央市富郷町寒川山","lat":"33.915","lng":"133.51"},{"id":"73166","name":"松山","kana":"ﾏﾂﾔﾏ","address":"松山市北持田町　松山地方気象台","lat":"33.84333333","lng":"132.7766667"},{"id":"73168","name":"松山南吉田","kana":"ﾏﾂﾔﾏﾐﾅﾐﾖｼﾀﾞ","address":"松山市南吉田町　松山航空気象観測所","lat":"33.82666667","lng":"132.6983333"},{"id":"73231","name":"上林","kana":"ｶﾐﾊﾔｼ","address":"東温市上林甲","lat":"33.73833333","lng":"132.89"},{"id":"73247","name":"成就社","kana":"ｼﾞｮｳｼﾞｭｼｬ","address":"西条市西之川野地国有林","lat":"33.795","lng":"133.1316667"},{"id":"73256","name":"長浜","kana":"ﾅｶﾞﾊﾏ","address":"大洲市長浜甲","lat":"33.61666667","lng":"132.48"},{"id":"73271","name":"中山","kana":"ﾅｶﾔﾏ","address":"伊予市中山町中山丑","lat":"33.63833333","lng":"132.7083333"},{"id":"73276","name":"久万","kana":"ｸﾏ","address":"上浮穴郡久万高原町入野","lat":"33.66333333","lng":"132.895"},{"id":"73306","name":"大洲","kana":"ｵｵｽﾞ","address":"大洲市阿蔵字フルカワ甲","lat":"33.50833333","lng":"132.535"},{"id":"73321","name":"獅子越峠","kana":"ｼｼｺﾞｴﾄｳｹﾞ","address":"喜多郡内子町本川","lat":"33.54333333","lng":"132.8316667"},{"id":"73341","name":"瀬戸","kana":"ｾﾄ","address":"西宇和郡伊方町塩成","lat":"33.44666667","lng":"132.2566667"},{"id":"73351","name":"八幡浜","kana":"ﾔﾜﾀﾊﾏ","address":"八幡浜市五反田","lat":"33.44833333","lng":"132.4333333"},{"id":"73406","name":"宇和","kana":"ｳﾜ","address":"西予市宇和町神領","lat":"33.36666667","lng":"132.5033333"},{"id":"73442","name":"宇和島","kana":"ｳﾜｼﾞﾏ","address":"宇和島市住吉町　宇和島特別地域気象観測所","lat":"33.22666667","lng":"132.5516667"},{"id":"73446","name":"近永","kana":"ﾁｶﾅｶﾞ","address":"北宇和郡鬼北町近永","lat":"33.25333333","lng":"132.675"},{"id":"73516","name":"御荘","kana":"ﾐｼｮｳ","address":"南宇和郡愛南町御荘平城","lat":"32.96333333","lng":"132.57"},{"id":"74056","name":"本川","kana":"ﾎﾝｶﾞﾜ","address":"吾川郡いの町脇ノ山字根藤","lat":"33.765","lng":"133.3383333"},{"id":"74071","name":"本山","kana":"ﾓﾄﾔﾏ","address":"長岡郡本山町本山","lat":"33.75333333","lng":"133.575"},{"id":"74101","name":"池川","kana":"ｲｹｶﾞﾜ","address":"吾川郡仁淀川町土居甲","lat":"33.60666667","lng":"133.17"},{"id":"74126","name":"繁藤","kana":"ｼｹﾞﾄｳ","address":"香美市土佐山田町繁藤","lat":"33.67833333","lng":"133.685"},{"id":"74136","name":"大栃","kana":"ｵｵﾄﾞﾁ","address":"香美市物部町大栃上西の川","lat":"33.69833333","lng":"133.875"},{"id":"74151","name":"魚梁瀬","kana":"ﾔﾅｾ","address":"安芸郡馬路村魚梁瀬","lat":"33.615","lng":"134.1083333"},{"id":"74166","name":"佐川","kana":"ｻｶﾜ","address":"高岡郡佐川町丙","lat":"33.51166667","lng":"133.2716667"},{"id":"74182","name":"高知","kana":"ｺｳﾁ","address":"高知市比島町　高知地方気象台","lat":"33.56666667","lng":"133.5483333"},{"id":"74187","name":"後免","kana":"ｺﾞﾒﾝ","address":"南国市廿枝","lat":"33.59","lng":"133.6433333"},{"id":"74188","name":"南国日章","kana":"ﾅﾝｺｸﾆｯｼｮｳ","address":"南国市物部国有　高知航空気象観測所","lat":"33.545","lng":"133.6683333"},{"id":"74237","name":"船戸","kana":"ﾌﾅﾄ","address":"高岡郡津野町船戸","lat":"33.41666667","lng":"133.0883333"},{"id":"74238","name":"鳥形山","kana":"ﾄﾘｶﾞﾀﾔﾏ","address":"吾川郡仁淀川町大植","lat":"33.48","lng":"133.0833333"},{"id":"74271","name":"安芸","kana":"ｱｷ","address":"安芸市伊尾木","lat":"33.48833333","lng":"133.9333333"},{"id":"74276","name":"田野","kana":"ﾀﾉ","address":"安芸郡田野町","lat":"33.42666667","lng":"134.0066667"},{"id":"74296","name":"梼原","kana":"ﾕｽﾊﾗ","address":"高岡郡梼原町川西路","lat":"33.39","lng":"132.9216667"},{"id":"74311","name":"須崎","kana":"ｽｻｷ","address":"須崎市西町","lat":"33.385","lng":"133.2766667"},{"id":"74336","name":"佐喜浜","kana":"ｻｷﾊﾏ","address":"室戸市佐喜浜町","lat":"33.41166667","lng":"134.1983333"},{"id":"74361","name":"窪川","kana":"ｸﾎﾞｶﾜ","address":"高岡郡四万十町新開町","lat":"33.20666667","lng":"133.1283333"},{"id":"74372","name":"室戸岬","kana":"ﾑﾛﾄﾐｻｷ","address":"室戸市室戸岬町　室戸岬特別地域気象観測所","lat":"33.25166667","lng":"134.1766667"},{"id":"74381","name":"江川崎","kana":"ｴｶﾜｻｷ","address":"四万十市西土佐用井","lat":"33.17","lng":"132.7916667"},{"id":"74391","name":"大正","kana":"ﾀｲｼｮｳ","address":"高岡郡四万十町大正","lat":"33.19333333","lng":"132.9716667"},{"id":"74436","name":"佐賀","kana":"ｻｶﾞ","address":"幡多郡黒潮町佐賀","lat":"33.07833333","lng":"133.1016667"},{"id":"74447","name":"宿毛","kana":"ｽｸﾓ","address":"宿毛市片島　宿毛特別地域気象観測所","lat":"32.92","lng":"132.695"},{"id":"74456","name":"中村","kana":"ﾅｶﾑﾗ","address":"四万十市入田字長善寺前","lat":"32.99","lng":"132.92"},{"id":"74506","name":"三崎","kana":"ﾐｻｷ","address":"土佐清水市三崎","lat":"32.795","lng":"132.8716667"},{"id":"74516","name":"清水","kana":"ｼﾐｽﾞ","address":"土佐清水市足摺岬　清水特別地域気象観測所","lat":"32.72166667","lng":"133.01"},{"id":"81011","name":"須佐","kana":"ｽｻ","address":"萩市須佐字野中","lat":"34.615","lng":"131.6233333"},{"id":"81071","name":"萩","kana":"ﾊｷﾞ","address":"萩市大字土原字川島沖田　萩特別地域気象観測所","lat":"34.41","lng":"131.405"},{"id":"81116","name":"油谷","kana":"ﾕﾔ","address":"長門市油谷新別名","lat":"34.37","lng":"131.055"},{"id":"81146","name":"篠生","kana":"ｼﾉﾌﾞ","address":"山口市阿東地福下","lat":"34.33833333","lng":"131.6266667"},{"id":"81151","name":"徳佐","kana":"ﾄｸｻ","address":"山口市阿東徳佐中","lat":"34.39833333","lng":"131.725"},{"id":"81167","name":"羅漢山","kana":"ﾗｶﾝｻﾞﾝ","address":"岩国市美和町秋掛字羅漢山","lat":"34.35","lng":"132.0633333"},{"id":"81196","name":"秋吉台","kana":"ｱｷﾖｼﾀﾞｲ","address":"美祢市秋芳町秋吉","lat":"34.235","lng":"131.3066667"},{"id":"81228","name":"鹿野","kana":"ｶﾉ","address":"周南市大字鹿野下字サヤ段","lat":"34.225","lng":"131.815"},{"id":"81231","name":"広瀬","kana":"ﾋﾛｾ","address":"岩国市錦町広瀬","lat":"34.26166667","lng":"131.9516667"},{"id":"81266","name":"豊田","kana":"ﾄﾖﾀ","address":"下関市豊田町大字稲光字土橋","lat":"34.18666667","lng":"131.0766667"},{"id":"81271","name":"東厚保","kana":"ﾋｶﾞｼｱﾂ","address":"美祢市東厚保町山中","lat":"34.11833333","lng":"131.1816667"},{"id":"81286","name":"山口","kana":"ﾔﾏｸﾞﾁ","address":"山口市前町　山口特別地域気象観測所","lat":"34.16166667","lng":"131.4616667"},{"id":"81301","name":"和田","kana":"ﾜﾀﾞ","address":"周南市大字高瀬","lat":"34.17","lng":"131.7533333"},{"id":"81321","name":"岩国","kana":"ｲﾜｸﾆ","address":"岩国市川西","lat":"34.155","lng":"132.1783333"},{"id":"81371","name":"防府","kana":"ﾎｳﾌ","address":"防府市大字植松","lat":"34.04","lng":"131.5333333"},{"id":"81386","name":"下松","kana":"ｸﾀﾞﾏﾂ","address":"下松市西豊井","lat":"34.01","lng":"131.8716667"},{"id":"81397","name":"玖珂","kana":"ｸｶﾞ","address":"岩国市玖珂町","lat":"34.095","lng":"132.075"},{"id":"81428","name":"下関","kana":"ｼﾓﾉｾｷ","address":"下関市竹崎町　下関地方気象台","lat":"33.94833333","lng":"130.925"},{"id":"81436","name":"宇部","kana":"ｳﾍﾞ","address":"宇部市沖宇部地先　山口宇部航空気象観測所","lat":"33.93","lng":"131.2783333"},{"id":"81481","name":"柳井","kana":"ﾔﾅｲ","address":"柳井市南浜","lat":"33.95833333","lng":"132.1133333"},{"id":"81486","name":"安下庄","kana":"ｱｹﾞﾉｼｮｳ","address":"大島郡周防大島町東安下庄","lat":"33.90333333","lng":"132.2933333"},{"id":"82036","name":"小呂島","kana":"ｵﾛﾉｼﾏ","address":"福岡市西区大字小呂島","lat":"33.86333333","lng":"130.035"},{"id":"82046","name":"宗像","kana":"ﾑﾅｶﾀ","address":"宗像市田熊","lat":"33.80833333","lng":"130.5383333"},{"id":"82056","name":"八幡","kana":"ﾔﾊﾀ","address":"北九州市八幡西区鷹の巣","lat":"33.85166667","lng":"130.7433333"},{"id":"82068","name":"空港北町","kana":"ｸｳｺｳｷﾀﾏﾁ","address":"北九州市小倉南区空港北町　北九州航空気象観測所","lat":"33.845","lng":"131.035"},{"id":"82097","name":"東谷","kana":"ﾋｶﾞｼﾀﾆ","address":"北九州市小倉南区大字木下","lat":"33.77833333","lng":"130.865"},{"id":"82101","name":"行橋","kana":"ﾕｸﾊｼ","address":"行橋市西泉","lat":"33.71333333","lng":"130.975"},{"id":"82136","name":"飯塚","kana":"ｲｲﾂﾞｶ","address":"飯塚市川島字甘木　飯塚特別地域気象観測所","lat":"33.65166667","lng":"130.6933333"},{"id":"82171","name":"前原","kana":"ﾏｴﾊﾞﾙ","address":"糸島市前原西","lat":"33.56","lng":"130.19"},{"id":"82182","name":"福岡","kana":"ﾌｸｵｶ","address":"福岡市中央区大濠　福岡管区気象台","lat":"33.58166667","lng":"130.375"},{"id":"82186","name":"博多","kana":"ﾊｶﾀ","address":"福岡市博多区大字上臼井字屋敷　福岡航空地方気象台","lat":"33.58333333","lng":"130.4516667"},{"id":"82191","name":"太宰府","kana":"ﾀﾞｻﾞｲﾌ","address":"太宰府市大佐野","lat":"33.49666667","lng":"130.49"},{"id":"82206","name":"添田","kana":"ｿｴﾀﾞ","address":"田川郡添田町大字野田字大野ノ原","lat":"33.55833333","lng":"130.855"},{"id":"82241","name":"早良脇山","kana":"ｻﾜﾗﾜｷﾔﾏ","address":"福岡市早良区脇山","lat":"33.48833333","lng":"130.3533333"},{"id":"82261","name":"朝倉","kana":"ｱｻｸﾗ","address":"朝倉市三奈木","lat":"33.40666667","lng":"130.695"},{"id":"82272","name":"英彦山","kana":"ﾋｺｻﾝ","address":"田川郡添田町大字英彦山","lat":"33.48833333","lng":"130.9233333"},{"id":"82306","name":"久留米","kana":"ｸﾙﾒ","address":"久留米市津福本町","lat":"33.30333333","lng":"130.4933333"},{"id":"82316","name":"耳納山","kana":"ﾐﾉｳｻﾝ","address":"久留米市草野町字吉木","lat":"33.29166667","lng":"130.625"},{"id":"82317","name":"黒木","kana":"ｸﾛｷﾞ","address":"八女市黒木町本分","lat":"33.225","lng":"130.645"},{"id":"82331","name":"柳川","kana":"ﾔﾅｶﾞﾜ","address":"柳川市本城町","lat":"33.16","lng":"130.4033333"},{"id":"82361","name":"大牟田","kana":"ｵｵﾑﾀ","address":"大牟田市笹原町","lat":"33.00666667","lng":"130.4666667"},{"id":"83021","name":"国見","kana":"ｸﾆﾐ","address":"国東市国見町中字浜手","lat":"33.67833333","lng":"131.575"},{"id":"83051","name":"中津","kana":"ﾅｶﾂ","address":"中津市大字定留","lat":"33.58666667","lng":"131.245"},{"id":"83061","name":"豊後高田","kana":"ﾌﾞﾝｺﾞﾀｶﾀﾞ","address":"豊後高田市呉崎","lat":"33.57","lng":"131.4333333"},{"id":"83096","name":"耶馬渓","kana":"ﾔﾊﾞｹｲ","address":"中津市耶馬渓町大島","lat":"33.445","lng":"131.115"},{"id":"83106","name":"院内","kana":"ｲﾝﾅｲ","address":"宇佐市院内町山城","lat":"33.42","lng":"131.3166667"},{"id":"83121","name":"杵築","kana":"ｷﾂｷ","address":"杵築市大字本庄","lat":"33.41666667","lng":"131.5966667"},{"id":"83126","name":"武蔵","kana":"ﾑｻｼ","address":"国東市武蔵町大字糸原字大海田　大分航空気象観測所","lat":"33.47833333","lng":"131.7366667"},{"id":"83137","name":"日田","kana":"ﾋﾀ","address":"日田市三本松　日田特別地域気象観測所","lat":"33.32166667","lng":"130.9283333"},{"id":"83191","name":"玖珠","kana":"ｸｽ","address":"玖珠郡玖珠町大字帆足","lat":"33.29166667","lng":"131.155"},{"id":"83201","name":"湯布院","kana":"ﾕﾌｲﾝ","address":"由布市湯布院町川南","lat":"33.25333333","lng":"131.3466667"},{"id":"83216","name":"大分","kana":"ｵｵｲﾀ","address":"大分市長浜町　大分地方気象台","lat":"33.235","lng":"131.6183333"},{"id":"83226","name":"佐賀関","kana":"ｻｶﾞﾉｾｷ","address":"大分市大字佐賀関字太田","lat":"33.24833333","lng":"131.865"},{"id":"83242","name":"椿ヶ鼻","kana":"ﾂﾊﾞｷｶﾞﾊﾅ","address":"日田市前津江町大野字ウスギ","lat":"33.19","lng":"130.915"},{"id":"83286","name":"臼杵","kana":"ｳｽｷ","address":"臼杵市大字諏訪字北ヶ迫","lat":"33.13166667","lng":"131.7966667"},{"id":"83341","name":"犬飼","kana":"ｲﾇｶｲ","address":"豊後大野市犬飼町田原","lat":"33.065","lng":"131.6316667"},{"id":"83371","name":"竹田","kana":"ﾀｹﾀ","address":"竹田市大字会々","lat":"32.97333333","lng":"131.3983333"},{"id":"83401","name":"佐伯","kana":"ｻｲｷ","address":"佐伯市字剣崎","lat":"32.95","lng":"131.9016667"},{"id":"83431","name":"宇目","kana":"ｳﾒ","address":"佐伯市宇目大字重岡","lat":"32.845","lng":"131.675"},{"id":"83476","name":"蒲江","kana":"ｶﾏｴ","address":"佐伯市蒲江大字蒲江浦","lat":"32.795","lng":"131.9233333"},{"id":"84012","name":"鰐浦","kana":"ﾜﾆｳﾗ","address":"対馬市上対馬町鰐浦字カキセ","lat":"34.69833333","lng":"129.445"},{"id":"84072","name":"厳原","kana":"ｲﾂﾞﾊﾗ","address":"対馬市厳原町東里　厳原特別地域気象観測所","lat":"34.19666667","lng":"129.2916667"},{"id":"84076","name":"美津島","kana":"ﾐﾂｼﾏ","address":"対馬市美津島町鶏知乙　対馬航空気象観測所","lat":"34.285","lng":"129.33"},{"id":"84121","name":"芦辺","kana":"ｱｼﾍﾞ","address":"壱岐市芦辺町国分東触","lat":"33.8","lng":"129.7216667"},{"id":"84122","name":"石田","kana":"ｲｼﾀﾞ","address":"壱岐市石田町筒城東触　壱岐航空気象観測所","lat":"33.74833333","lng":"129.785"},{"id":"84171","name":"平戸","kana":"ﾋﾗﾄﾞ","address":"平戸市岩の上町　平戸特別地域気象観測所","lat":"33.36","lng":"129.55"},{"id":"84183","name":"松浦","kana":"ﾏﾂｳﾗ","address":"松浦市志佐町里免字辻ノ尾台","lat":"33.34166667","lng":"129.7116667"},{"id":"84266","name":"佐世保","kana":"ｻｾﾎﾞ","address":"佐世保市干尽町　佐世保特別地域気象観測所","lat":"33.15833333","lng":"129.7266667"},{"id":"84306","name":"西海","kana":"ｻｲｶｲ","address":"西海市西海町中浦南郷","lat":"33.01333333","lng":"129.6516667"},{"id":"84341","name":"有川","kana":"ｱﾘｶﾜ","address":"南松浦郡新上五島町有川郷字上原","lat":"32.98166667","lng":"129.1183333"},{"id":"84361","name":"長浦岳","kana":"ﾅｶﾞｳﾗﾀﾞｹ","address":"長崎市神浦北大中尾町上アマサキ","lat":"32.90833333","lng":"129.7383333"},{"id":"84371","name":"大村","kana":"ｵｵﾑﾗ","address":"大村市箕島町　長崎航空気象観測所","lat":"32.91666667","lng":"129.9133333"},{"id":"84441","name":"諫早","kana":"ｲｻﾊﾔ","address":"諫早市馬渡町","lat":"32.84333333","lng":"130.025"},{"id":"84496","name":"長崎","kana":"ﾅｶﾞｻｷ","address":"長崎市南山手町　長崎地方気象台","lat":"32.73333333","lng":"129.8666667"},{"id":"84519","name":"雲仙岳","kana":"ｳﾝｾﾞﾝﾀﾞｹ","address":"雲仙市小浜町雲仙　雲仙岳特別地域気象観測所","lat":"32.73666667","lng":"130.2616667"},{"id":"84523","name":"島原","kana":"ｼﾏﾊﾞﾗ","address":"島原市新湊","lat":"32.76","lng":"130.3616667"},{"id":"84536","name":"福江","kana":"ﾌｸｴ","address":"五島市木場町　福江特別地域気象観測所","lat":"32.69333333","lng":"128.8266667"},{"id":"84537","name":"上大津","kana":"ｶﾐｵｵﾂﾞ","address":"五島市上大津町　福江航空気象観測所","lat":"32.665","lng":"128.8316667"},{"id":"84561","name":"口之津","kana":"ｸﾁﾉﾂ","address":"南島原市口之津町丁","lat":"32.61166667","lng":"130.1933333"},{"id":"84597","name":"脇岬","kana":"ﾜｷﾐｻｷ","address":"長崎市脇岬町","lat":"32.58166667","lng":"129.7766667"},{"id":"85033","name":"唐津","kana":"ｶﾗﾂ","address":"唐津市二夕子","lat":"33.45833333","lng":"129.955"},{"id":"85046","name":"北山","kana":"ﾎｸｻﾞﾝ","address":"佐賀市富士町大字関屋字中島","lat":"33.41333333","lng":"130.22"},{"id":"85106","name":"鳥栖","kana":"ﾄｽ","address":"鳥栖市田代外町","lat":"33.385","lng":"130.5166667"},{"id":"85116","name":"伊万里","kana":"ｲﾏﾘ","address":"伊万里市立花町","lat":"33.26666667","lng":"129.8783333"},{"id":"85142","name":"佐賀","kana":"ｻｶﾞ","address":"佐賀市駅前中央　佐賀地方気象台","lat":"33.265","lng":"130.305"},{"id":"85161","name":"嬉野","kana":"ｳﾚｼﾉ","address":"嬉野市嬉野町大字下野丙","lat":"33.11666667","lng":"129.995"},{"id":"85166","name":"白石","kana":"ｼﾛｲｼ","address":"杵島郡白石町大字福田","lat":"33.18333333","lng":"130.1483333"},{"id":"85176","name":"川副","kana":"ｶﾜｿｴ","address":"佐賀市川副町大字犬井道字国造搦　佐賀航空気象観測所","lat":"33.14833333","lng":"130.3016667"},{"id":"86006","name":"鹿北","kana":"ｶﾎｸ","address":"山鹿市鹿北町岩野","lat":"33.115","lng":"130.6916667"},{"id":"86066","name":"南小国","kana":"ﾐﾅﾐｵｸﾞﾆ","address":"阿蘇郡南小国町赤馬場","lat":"33.10333333","lng":"131.0666667"},{"id":"86086","name":"岱明","kana":"ﾀｲﾒｲ","address":"玉名市岱明町中土","lat":"32.915","lng":"130.5116667"},{"id":"86101","name":"菊池","kana":"ｷｸﾁ","address":"菊池市木柑子字上辻","lat":"32.945","lng":"130.7816667"},{"id":"86111","name":"阿蘇乙姫","kana":"ｱｿｵﾄﾋﾒ","address":"阿蘇市乙姫","lat":"32.94666667","lng":"131.04"},{"id":"86141","name":"熊本","kana":"ｸﾏﾓﾄ","address":"熊本市中央区京町　熊本地方気象台","lat":"32.81333333","lng":"130.7066667"},{"id":"86146","name":"益城","kana":"ﾏｼｷ","address":"上益城郡益城町大字小谷字上大道　熊本航空気象観測所","lat":"32.83666667","lng":"130.855"},{"id":"86157","name":"南阿蘇","kana":"ﾐﾅﾐｱｿ","address":"阿蘇郡南阿蘇村河陰","lat":"32.83166667","lng":"131.0133333"},{"id":"86161","name":"高森","kana":"ﾀｶﾓﾘ","address":"阿蘇郡高森町大字高森","lat":"32.82166667","lng":"131.125"},{"id":"86181","name":"宇土","kana":"ｳﾄ","address":"宇土市馬之瀬町","lat":"32.7","lng":"130.6566667"},{"id":"86197","name":"山都","kana":"ﾔﾏﾄ","address":"上益城郡山都町原突角","lat":"32.71166667","lng":"130.9583333"},{"id":"86216","name":"三角","kana":"ﾐｽﾐ","address":"宇城市三角町波多","lat":"32.61166667","lng":"130.4783333"},{"id":"86236","name":"甲佐","kana":"ｺｳｻ","address":"上益城郡甲佐町大字上早川字尾ノ上","lat":"32.67166667","lng":"130.8166667"},{"id":"86271","name":"松島","kana":"ﾏﾂｼﾏ","address":"上天草市松島町阿村","lat":"32.515","lng":"130.4466667"},{"id":"86316","name":"本渡","kana":"ﾎﾝﾄﾞ","address":"天草市本渡町本戸馬場","lat":"32.46833333","lng":"130.18"},{"id":"86336","name":"八代","kana":"ﾔﾂｼﾛ","address":"八代市平山新町","lat":"32.47333333","lng":"130.6066667"},{"id":"86396","name":"田浦","kana":"ﾀﾉｳﾗ","address":"葦北郡芦北町大字田浦町字八幡の元","lat":"32.36333333","lng":"130.5083333"},{"id":"86407","name":"山江","kana":"ﾔﾏｴ","address":"球磨郡山江村大字万江字屋形","lat":"32.30166667","lng":"130.7466667"},{"id":"86411","name":"五木","kana":"ｲﾂｷ","address":"球磨郡五木村甲字下手","lat":"32.395","lng":"130.8266667"},{"id":"86451","name":"水俣","kana":"ﾐﾅﾏﾀ","address":"水俣市南福寺","lat":"32.205","lng":"130.4066667"},{"id":"86461","name":"一勝地","kana":"ｲｯｼｮｳﾁ","address":"球磨郡球磨村大字一勝地丙字永崎","lat":"32.245","lng":"130.645"},{"id":"86467","name":"人吉","kana":"ﾋﾄﾖｼ","address":"人吉市城本町　人吉特別地域気象観測所","lat":"32.21666667","lng":"130.755"},{"id":"86477","name":"上","kana":"ｳｴ","address":"球磨郡あさぎり町上北","lat":"32.225","lng":"130.905"},{"id":"86478","name":"多良木","kana":"ﾀﾗｷﾞ","address":"球磨郡多良木町大字黒肥地字祓川","lat":"32.295","lng":"130.95"},{"id":"86481","name":"湯前横谷","kana":"ﾕﾉﾏｴﾖｺﾀﾆ","address":"球磨郡湯前町猪鹿倉山","lat":"32.26333333","lng":"131.0433333"},{"id":"86491","name":"牛深","kana":"ｳｼﾌﾞｶ","address":"天草市牛深町　牛深特別地域気象観測所","lat":"32.19666667","lng":"130.0266667"},{"id":"87041","name":"高千穂","kana":"ﾀｶﾁﾎ","address":"西臼杵郡高千穂町大字押方字宮野原","lat":"32.71166667","lng":"131.29"},{"id":"87066","name":"古江","kana":"ﾌﾙｴ","address":"延岡市北浦町古江","lat":"32.71166667","lng":"131.82"},{"id":"87071","name":"鞍岡","kana":"ｸﾗｵｶ","address":"西臼杵郡五ヶ瀬町大字鞍岡","lat":"32.64333333","lng":"131.1566667"},{"id":"87086","name":"日之影","kana":"ﾋﾉｶｹﾞ","address":"西臼杵郡日之影町大字七折字滝上下","lat":"32.68166667","lng":"131.4066667"},{"id":"87127","name":"諸塚","kana":"ﾓﾛﾂｶ","address":"東臼杵郡諸塚村大字家代","lat":"32.51666667","lng":"131.335"},{"id":"87136","name":"北方","kana":"ｷﾀｶﾀ","address":"延岡市北方町川水流卯","lat":"32.56166667","lng":"131.525"},{"id":"87141","name":"延岡","kana":"ﾉﾍﾞｵｶ","address":"延岡市天神小路　延岡特別地域気象観測所","lat":"32.58166667","lng":"131.6566667"},{"id":"87157","name":"椎葉","kana":"ｼｲﾊﾞ","address":"東臼杵郡椎葉村大字下福良","lat":"32.475","lng":"131.1033333"},{"id":"87181","name":"日向","kana":"ﾋｭｳｶﾞ","address":"日向市大字塩見","lat":"32.40833333","lng":"131.6"},{"id":"87206","name":"神門","kana":"ﾐｶﾄﾞ","address":"東臼杵郡美郷町南郷区神門","lat":"32.385","lng":"131.3316667"},{"id":"87231","name":"西米良","kana":"ﾆｼﾒﾗ","address":"児湯郡西米良村大字竹原","lat":"32.24","lng":"131.1516667"},{"id":"87251","name":"都農","kana":"ﾂﾉ","address":"児湯郡都農町大字川北","lat":"32.28333333","lng":"131.5416667"},{"id":"87293","name":"高鍋","kana":"ﾀｶﾅﾍﾞ","address":"児湯郡高鍋町上江","lat":"32.12333333","lng":"131.475"},{"id":"87301","name":"加久藤","kana":"ｶｸﾄｳ","address":"えびの市大字永山","lat":"32.04666667","lng":"130.81"},{"id":"87331","name":"西都","kana":"ｻｲﾄ","address":"西都市大字黒生野","lat":"32.06333333","lng":"131.4133333"},{"id":"87346","name":"えびの高原","kana":"ｴﾋﾞﾉｺｳｹﾞﾝ","address":"えびの市大字末永","lat":"31.945","lng":"130.84"},{"id":"87352","name":"小林","kana":"ｺﾊﾞﾔｼ","address":"小林市南西方","lat":"32","lng":"130.9533333"},{"id":"87361","name":"野尻","kana":"ﾉｼﾞﾘ","address":"小林市野尻町大字紙屋","lat":"31.95666667","lng":"131.1566667"},{"id":"87371","name":"国富","kana":"ｸﾆﾄﾐ","address":"東諸県郡国富町大字須志田","lat":"32.00666667","lng":"131.2966667"},{"id":"87376","name":"宮崎","kana":"ﾐﾔｻﾞｷ","address":"宮崎市霧島　宮崎地方気象台","lat":"31.93833333","lng":"131.4133333"},{"id":"87406","name":"田野","kana":"ﾀﾉ","address":"宮崎市田野町甲","lat":"31.84333333","lng":"131.3083333"},{"id":"87412","name":"赤江","kana":"ｱｶｴ","address":"宮崎市大字赤江　宮崎航空気象観測所","lat":"31.87666667","lng":"131.4483333"},{"id":"87426","name":"都城","kana":"ﾐﾔｺﾉｼﾞｮｳ","address":"都城市菖蒲原町　都城特別地域気象観測所","lat":"31.73","lng":"131.0816667"},{"id":"87461","name":"深瀬","kana":"ﾌｶｾ","address":"日南市大字酒谷甲","lat":"31.63666667","lng":"131.25"},{"id":"87492","name":"油津","kana":"ｱﾌﾞﾗﾂ","address":"日南市油津　油津特別地域気象観測所","lat":"31.57833333","lng":"131.4066667"},{"id":"87501","name":"串間","kana":"ｸｼﾏ","address":"串間市大字西方字平山","lat":"31.465","lng":"131.22"},{"id":"88061","name":"阿久根","kana":"ｱｸﾈ","address":"阿久根市赤瀬川　阿久根特別地域気象観測所","lat":"32.02666667","lng":"130.2"},{"id":"88066","name":"出水","kana":"ｲｽﾞﾐ","address":"出水市緑町","lat":"32.09333333","lng":"130.3516667"},{"id":"88081","name":"大口","kana":"ｵｵｸﾁ","address":"伊佐市大口原田","lat":"32.04666667","lng":"130.6266667"},{"id":"88101","name":"紫尾山","kana":"ｼﾋﾞｻﾝ","address":"薩摩郡さつま町平川大洞国有林","lat":"31.98","lng":"130.3666667"},{"id":"88107","name":"さつま柏原","kana":"ｻﾂﾏｶｼﾜﾊﾞﾙ","address":"薩摩郡さつま町柏原","lat":"31.91666667","lng":"130.455"},{"id":"88131","name":"中甑","kana":"ﾅｶｺｼｷ","address":"薩摩川内市上甑町中甑","lat":"31.835","lng":"129.8666667"},{"id":"88151","name":"川内","kana":"ｾﾝﾀﾞｲ","address":"薩摩川内市中郷","lat":"31.83333333","lng":"130.315"},{"id":"88166","name":"溝辺","kana":"ﾐｿﾞﾍﾞ","address":"霧島市溝辺町麓　鹿児島航空気象観測所","lat":"31.80333333","lng":"130.7183333"},{"id":"88211","name":"八重山","kana":"ﾔｴﾔﾏ","address":"薩摩川内市入来町浦之名字大谷","lat":"31.74666667","lng":"130.4383333"},{"id":"88261","name":"東市来","kana":"ﾋｶﾞｼｲﾁｷ","address":"日置市東市来町湯田","lat":"31.66833333","lng":"130.3283333"},{"id":"88286","name":"牧之原","kana":"ﾏｷﾉﾊﾗ","address":"霧島市福山町福山","lat":"31.66166667","lng":"130.8433333"},{"id":"88317","name":"鹿児島","kana":"ｶｺﾞｼﾏ","address":"鹿児島市東郡元町　鹿児島地方気象台","lat":"31.555","lng":"130.5466667"},{"id":"88331","name":"輝北","kana":"ｷﾎｸ","address":"鹿屋市輝北町市成","lat":"31.58833333","lng":"130.855"},{"id":"88341","name":"大隅","kana":"ｵｵｽﾐ","address":"曽於市大隅町境木町","lat":"31.58","lng":"131.005"},{"id":"88371","name":"加世田","kana":"ｶｾﾀﾞ","address":"南さつま市加世田東本町","lat":"31.415","lng":"130.325"},{"id":"88392","name":"吉ケ別府","kana":"ﾖｼｶﾞﾍﾞｯﾌﾟ","address":"鹿屋市下高隈町","lat":"31.45833333","lng":"130.8616667"},{"id":"88406","name":"志布志","kana":"ｼﾌﾞｼ","address":"志布志市志布志町志布志字杉の下","lat":"31.47833333","lng":"131.095"},{"id":"88432","name":"喜入","kana":"ｷｲﾚ","address":"鹿児島市喜入中名町","lat":"31.38666667","lng":"130.54"},{"id":"88442","name":"鹿屋","kana":"ｶﾉﾔ","address":"鹿屋市寿","lat":"31.39166667","lng":"130.8633333"},{"id":"88447","name":"肝付前田","kana":"ｷﾓﾂｷﾏｴﾀﾞ","address":"肝属郡肝付町前田","lat":"31.34","lng":"130.9383333"},{"id":"88466","name":"枕崎","kana":"ﾏｸﾗｻﾞｷ","address":"枕崎市高見町　枕崎特別地域気象観測所","lat":"31.27166667","lng":"130.2916667"},{"id":"88486","name":"指宿","kana":"ｲﾌﾞｽｷ","address":"指宿市十町","lat":"31.25","lng":"130.6366667"},{"id":"88506","name":"内之浦","kana":"ｳﾁﾉｳﾗ","address":"肝属郡肝付町北方","lat":"31.27666667","lng":"131.055"},{"id":"88536","name":"田代","kana":"ﾀｼﾛ","address":"肝属郡錦江町田代麓","lat":"31.19833333","lng":"130.8433333"},{"id":"88551","name":"佐多","kana":"ｻﾀ","address":"肝属郡南大隅町佐多伊座敷","lat":"31.09333333","lng":"130.69"},{"id":"88612","name":"種子島","kana":"ﾀﾈｶﾞｼﾏ","address":"西之表市西之表　種子島特別地域気象観測所","lat":"30.72","lng":"130.9816667"},{"id":"88621","name":"中種子","kana":"ﾅｶﾀﾈ","address":"熊毛郡中種子町砂中　種子島航空気象観測所","lat":"30.605","lng":"130.9916667"},{"id":"88666","name":"上中","kana":"ｶﾐﾅｶ","address":"熊毛郡南種子町中之下","lat":"30.40666667","lng":"130.9016667"},{"id":"88686","name":"屋久島","kana":"ﾔｸｼﾏ","address":"熊毛郡屋久島町小瀬田　屋久島特別地域気象観測所","lat":"30.385","lng":"130.6583333"},{"id":"88706","name":"尾之間","kana":"ｵﾉｱｲﾀﾞ","address":"熊毛郡屋久島町尾之間字井出ノ尻","lat":"30.235","lng":"130.555"},{"id":"88736","name":"中之島","kana":"ﾅｶﾉｼﾏ","address":"鹿児島郡十島村中之島","lat":"29.84","lng":"129.8666667"},{"id":"88746","name":"平島","kana":"ﾀｲﾗｼﾞﾏ","address":"鹿児島郡十島村平島","lat":"29.68333333","lng":"129.5283333"},{"id":"88756","name":"諏訪之瀬島","kana":"ｽﾜﾉｾｼﾞﾏ","address":"鹿児島郡十島村諏訪之瀬島","lat":"29.61","lng":"129.705"},{"id":"88776","name":"小宝島","kana":"ｺﾀﾞｶﾗｼﾞﾏ","address":"鹿児島郡十島村小宝島","lat":"29.225","lng":"129.3283333"},{"id":"88781","name":"宝島","kana":"ﾀｶﾗｼﾞﾏ","address":"鹿児島郡十島村宝島","lat":"29.15166667","lng":"129.2016667"},{"id":"88821","name":"笠利","kana":"ｶｻﾘ","address":"奄美市笠利町大字和野字長浜金久　奄美航空気象観測所","lat":"28.43","lng":"129.7116667"},{"id":"88836","name":"名瀬","kana":"ﾅｾﾞ","address":"奄美市名瀬港町　名瀬測候所","lat":"28.37833333","lng":"129.495"},{"id":"88851","name":"喜界島","kana":"ｷｶｲｼﾞﾏ","address":"大島郡喜界町大字中里西牧　喜界航空気象観測所","lat":"28.32","lng":"129.9266667"},{"id":"88901","name":"古仁屋","kana":"ｺﾆﾔ","address":"大島郡瀬戸内町古仁屋船津","lat":"28.14333333","lng":"129.315"},{"id":"88931","name":"天城","kana":"ｱﾏｷﾞ","address":"大島郡天城町大字浅間字湾屋　徳之島航空気象観測所","lat":"27.835","lng":"128.88"},{"id":"88956","name":"伊仙","kana":"ｲｾﾝ","address":"大島郡伊仙町面縄","lat":"27.67666667","lng":"128.9733333"},{"id":"88971","name":"沖永良部","kana":"ｵｷﾉｴﾗﾌﾞ","address":"大島郡和泊町国頭字手付　沖永良部特別地域気象観測所","lat":"27.43166667","lng":"128.705"},{"id":"88986","name":"与論島","kana":"ﾖﾛﾝｼﾞﾏ","address":"大島郡与論町立長　与論航空気象観測所","lat":"27.04333333","lng":"128.4016667"},{"id":"91011","name":"伊是名","kana":"ｲｾﾞﾅ","address":"島尻郡伊是名村字内花","lat":"26.94833333","lng":"127.94"},{"id":"91021","name":"奥","kana":"ｵｸ","address":"国頭郡国頭村奥","lat":"26.835","lng":"128.2716667"},{"id":"91046","name":"国頭","kana":"ｸﾆｶﾞﾐ","address":"国頭郡国頭村比地","lat":"26.72833333","lng":"128.1783333"},{"id":"91066","name":"本部","kana":"ﾓﾄﾌﾞ","address":"国頭郡本部町謝花","lat":"26.685","lng":"127.8983333"},{"id":"91081","name":"東","kana":"ﾋｶﾞｼ","address":"国頭郡東村字平良","lat":"26.63166667","lng":"128.1533333"},{"id":"91096","name":"粟国","kana":"ｱｸﾞﾆ","address":"島尻郡粟国村字浜","lat":"26.59166667","lng":"127.2383333"},{"id":"91107","name":"名護","kana":"ﾅｺﾞ","address":"名護市宮里　名護特別地域気象観測所","lat":"26.59333333","lng":"127.965"},{"id":"91121","name":"読谷","kana":"ﾖﾐﾀﾝ","address":"中頭郡読谷村字波平","lat":"26.40666667","lng":"127.7333333"},{"id":"91141","name":"北原","kana":"ｷﾀﾊﾗ","address":"島尻郡久米島町字北原　久米島航空気象観測所","lat":"26.36333333","lng":"126.7133333"},{"id":"91146","name":"久米島","kana":"ｸﾒｼﾞﾏ","address":"島尻郡久米島町字謝名堂　久米島特別地域気象観測所","lat":"26.33666667","lng":"126.8033333"},{"id":"91151","name":"渡名喜","kana":"ﾄﾅｷ","address":"島尻郡渡名喜村","lat":"26.37333333","lng":"127.1416667"},{"id":"91161","name":"胡屋","kana":"ｺﾞﾔ","address":"沖縄市胡屋","lat":"26.32666667","lng":"127.8033333"},{"id":"91166","name":"宮城島","kana":"ﾐﾔｷﾞｼﾞﾏ","address":"うるま市与那城上原阪上","lat":"26.36333333","lng":"127.9716667"},{"id":"91181","name":"渡嘉敷","kana":"ﾄｶｼｷ","address":"島尻郡渡嘉敷村渡嘉敷","lat":"26.21","lng":"127.3633333"},{"id":"91197","name":"那覇","kana":"ﾅﾊ","address":"那覇市樋川　沖縄気象台","lat":"26.20666667","lng":"127.6866667"},{"id":"91236","name":"安次嶺","kana":"ｱｼﾐﾈ","address":"那覇市字安次嶺　那覇航空測候所","lat":"26.19333333","lng":"127.6383333"},{"id":"91241","name":"糸数","kana":"ｲﾄｶｽﾞ","address":"南城市玉城字糸数西赤津川原","lat":"26.15333333","lng":"127.765"},{"id":"92006","name":"北大東","kana":"ｷﾀﾀﾞｲﾄｳ","address":"島尻郡北大東村字南　北大東航空気象観測所","lat":"25.94333333","lng":"131.3266667"},{"id":"92011","name":"南大東","kana":"ﾐﾅﾐﾀﾞｲﾄｳ","address":"島尻郡南大東村在所　南大東島地方気象台","lat":"25.82833333","lng":"131.2283333"},{"id":"92012","name":"旧東","kana":"ｷｭｳﾄｳ","address":"島尻郡南大東村字旧東　南大東航空気象観測所","lat":"25.84666667","lng":"131.2633333"},{"id":"93012","name":"下地島","kana":"ｼﾓｼﾞｼﾏ","address":"宮古島市伊良部字佐和田　下地島航空気象観測所","lat":"24.82666667","lng":"125.1433333"},{"id":"93041","name":"宮古島","kana":"ﾐﾔｺｼﾞﾏ","address":"宮古島市平良字下里　宮古島地方気象台","lat":"24.79333333","lng":"125.2783333"},{"id":"93042","name":"鏡原","kana":"ｶｶﾞﾐﾊﾗ","address":"宮古島市平良字下里　宮古航空気象観測所","lat":"24.78166667","lng":"125.295"},{"id":"93051","name":"城辺","kana":"ｸﾞｽｸﾍﾞ","address":"宮古島市城辺字新城","lat":"24.74333333","lng":"125.41"},{"id":"93062","name":"仲筋","kana":"ﾅｶｽｼﾞ","address":"宮古郡多良間村仲筋　多良間航空気象観測所","lat":"24.65333333","lng":"124.675"},{"id":"94001","name":"伊原間","kana":"ｲﾊﾞﾙﾏ","address":"石垣市伊原間","lat":"24.50666667","lng":"124.28"},{"id":"94011","name":"所野","kana":"ﾄｺﾛﾉ","address":"八重山郡与那国町字与那国　与那国航空気象観測所","lat":"24.46666667","lng":"122.9783333"},{"id":"94017","name":"与那国島","kana":"ﾖﾅｸﾞﾆｼﾞﾏ","address":"八重山郡与那国町与那国　与那国島特別地域気象観測所","lat":"24.46666667","lng":"123.01"},{"id":"94036","name":"川平","kana":"ｶﾋﾞﾗ","address":"石垣市川平","lat":"24.46666667","lng":"124.14"},{"id":"94062","name":"西表島","kana":"ｲﾘｵﾓﾃｼﾞﾏ","address":"八重山郡竹富町字上原宇那利崎　西表島特別地域気象観測所","lat":"24.42666667","lng":"123.765"},{"id":"94081","name":"石垣島","kana":"ｲｼｶﾞｷｼﾞﾏ","address":"石垣市登野城　石垣島地方気象台","lat":"24.33666667","lng":"124.1633333"},{"id":"94086","name":"盛山","kana":"ﾓﾘﾔﾏ","address":"石垣市字盛山東牛種子　石垣航空気象観測所","lat":"24.395","lng":"124.245"},{"id":"94101","name":"大原","kana":"ｵｵﾊﾗ","address":"八重山郡竹富町南風見","lat":"24.265","lng":"123.8716667"},{"id":"94116","name":"波照間","kana":"ﾊﾃﾙﾏ","address":"八重山郡竹富町波照間","lat":"24.055","lng":"123.7666667"}]